~Version Information
VERS  .          2.0                              :CWLS Log Ascii Standard - Version 2.0
WRAP  .          NO                               :One line per depth step
~Well Information Block
#MNEM.UNIT       Data Type                        Information
#---------       ---------                        -------------------------------
STRT  .M         4768.13900                       :START DEPTH
STOP  .M         2401.97600                       :STOP DEPTH
STEP  .M         -0.15240                         :INCREMENT
NULL  .          -999.25                          :NULL DATA VALUE
COMP  .          INPEX Browse Ltd.                :COMPANY
WELL  .          Gorgonicthys-1                   :WELL
FLD   .          GORGONICHTHYS                    :FIELD
LOC   .                                           :LOCATION
PROV  .          WA                               :PROVINCE
STAT  .          WA                               :STATE
CNTY  .                                           :COUNTY
CTRY  .          Australia                        :COUNTRY
DATE  .                                           :DATE
UWI   .          Gorgonicthys-1                   :UNIQUE WELL UWI
LIC   .                                           :LICENSE NUMBER
API   .                                           :API NUMBER
SRVC  .          SLB                              :SERVICE COMPANY
~Parameter Information Block
#MNEM.UNIT       Value                            Description
#---------       ---------                        -------------
LONG  .DEG       123.126999                       :Well Surface Location
LATI  .DEG       -13.978000                       :Well Surface Location
XWELL .M         513716.073431                    :X-coordinate of Well Head
YWELL .M         8454697.816648                   :Y-coordinate of Well Head
~Curve Information Block
#MNEM.UNIT       API Code            Curve    Description
#--------        --------------      -----    -------------------
DEPT  .M                             :0       Index
TNPH  .V/V                           :1       Thermal Neutron Porosity (Ratio Method) in Selected Lithology
RHOB  .G/C3                          :2       Bulk Density                  
PEF   .                              :3       Photoelectric Factor          
DRHO  .G/C3                          :4       Bulk Density Correction       
AT90  .OHMM                          :5       AIT Two Foot Resistivity A90  
AT60  .OHMM                          :6       AIT Two Foot Resistivity A60  
AT30  .OHMM                          :7       AIT Two Foot Resistivity A30  
AT20  .OHMM                          :8       AIT Two Foot Resistivity A20  
AT10  .OHMM                          :9       AIT Two Foot Resistivity A10  
~Ascii Data Section
# ...
   3508.55300       0.35374       2.51408       4.17671       0.03668       1.27553       1.33902       1.35061       1.36203       1.35405 
   3508.40060       0.36695       2.52751       4.11577       0.04829       1.27619       1.33990       1.34450       1.35462       1.34443 
   3508.24820       0.40888       2.54260       4.11219       0.05563       1.26223       1.32473       1.32322       1.32989       1.31876 
   3508.09580       0.38185       2.53284       4.19505       0.04690       1.24673       1.30776       1.30111       1.31084       1.29832 
   3507.94340       0.37840       2.50828       4.29951       0.03213       1.23113       1.29113       1.28036       1.29148       1.27843 
   3507.79100       0.39892       2.48830       4.35056       0.02642       1.20691       1.26477       1.26009       1.26681       1.25685 
   3507.63860       0.38068       2.48556       4.32926       0.02739       1.17667       1.23197       1.22873       1.23294       1.22869 
   3507.48620       0.36820       2.50657       4.26880       0.03822       1.13783       1.18956       1.19173       1.18883       1.18868 
   3507.33380       0.37441       2.52152       4.23762       0.04435       1.10305       1.15204       1.15815       1.15244       1.15367 
   3507.18140       0.37922       2.52771       4.23495       0.04500       1.07473       1.12125       1.13420       1.13090       1.13309 
   3507.02900       0.36880       2.53740       4.21836       0.04771       1.05460       1.09926       1.11545       1.11601       1.11923 
   3506.87660       0.34608       2.55206       4.17482       0.05212       1.04351       1.08722       1.10814       1.10825       1.11189 
   3506.72420       0.33226       2.55895       4.10699       0.04887       1.03588       1.07889       1.10244       1.10293       1.10836 
   3506.57180       0.40632       2.54501       4.08154       0.03474       1.03637       1.07932       1.10673       1.10794       1.11462 
   3506.41940       0.39818       2.53034       4.09841       0.01979       1.04880       1.09274       1.12193       1.12542       1.13316 
   3506.26700       0.34030       2.51609       4.17320       0.00923       1.05983       1.10461       1.13619       1.14123       1.15009 
   3506.11460       0.26732       2.51017       4.29347       0.00831       1.06223       1.10700       1.14082       1.14661       1.15715 
   3505.96220       0.25186       2.49469       4.43580       0.00679       1.05854       1.10302       1.13525       1.14222       1.15323 
   3505.80980       0.34232       2.50461       4.54368       0.01995       1.05478       1.09892       1.12974       1.13558       1.14459 
   3505.65740       0.38438       2.53033       4.54365       0.03994       1.05916       1.10369       1.13397       1.14037       1.14647 
   3505.50500       0.43528       2.53882       4.45090       0.04324       1.07973       1.12607       1.15392       1.16100       1.16454 
   3505.35260       0.35818       2.54572       4.29911       0.04662       1.11057       1.15976       1.18530       1.19245       1.19267 
   3505.20020       0.34905       2.52582       4.21313       0.03208       1.14564       1.19822       1.22093       1.22786       1.22310 
   3505.04780       0.39489       2.52217       4.26412       0.02915       1.18277       1.23907       1.25731       1.26571       1.25536 
   3504.89540       0.34166       2.51470       4.43824       0.02104       1.22195       1.28250       1.29558       1.30433       1.28986 
   3504.74300       0.34376       2.53319       4.59100       0.03093       1.26012       1.32497       1.33214       1.34370       1.32628 
   3504.59060       0.29114       2.55411       4.59944       0.04735       1.30357       1.37351       1.37333       1.39032       1.36963 
   3504.43820       0.31770       2.53614       4.47995       0.04046       1.30799       1.37897       1.37879       1.39586       1.38206 
   3504.28580       0.32143       2.50337       4.34159       0.02404       1.25892       1.32506       1.33155       1.33945       1.33371 
   3504.13340       0.33999       2.48707       4.27614       0.01090       1.21484       1.27682       1.28633       1.28106       1.27428 
   3503.98100       0.31134       2.51280       4.30049       0.02726       1.16756       1.22515       1.23838       1.24322       1.23720 
   3503.82860       0.31988       2.53830       4.36938       0.04289       1.12256       1.17612       1.19192       1.20111       1.19871 
   3503.67620       0.33691       2.53483       4.44462       0.04150       1.08328       1.13342       1.15258       1.15297       1.15198 
   3503.52380       0.34685       2.50870       4.46299       0.02347       1.04894       1.09623       1.11813       1.11886       1.11925 
   3503.37140       0.34802       2.49131       4.43512       0.01128       1.04442       1.09172       1.11591       1.11305       1.11304 
   3503.21900       0.35549       2.51433       4.35862       0.02633       1.04769       1.09545       1.12030       1.11954       1.11928 
   3503.06660       0.42231       2.54120       4.32112       0.04206       1.05127       1.09913       1.12394       1.12451       1.12576 
   3502.91420       0.43021       2.55374       4.34155       0.05214       1.06535       1.11470       1.13665       1.14146       1.14266 
   3502.76180       0.39947       2.53935       4.39825       0.04591       1.08623       1.13756       1.15663       1.16785       1.16998 
   3502.60940       0.34466       2.53083       4.45603       0.04629       1.10160       1.15425       1.16813       1.18173       1.18713 
   3502.45700       0.33486       2.53308       4.49919       0.05087       1.08877       1.13979       1.15670       1.16601       1.17501 
   3502.30460       0.33706       2.53490       4.55977       0.05484       1.06689       1.11565       1.13247       1.13654       1.14730 
   3502.15220       0.33606       2.52995       4.60985       0.04925       1.04840       1.09520       1.11283       1.11447       1.12551 
   3501.99980       0.34589       2.52457       4.65328       0.03804       1.03469       1.08001       1.09974       1.10301       1.11416 
   3501.84740       0.36140       2.52782       4.67665       0.03310       1.02816       1.07270       1.09578       1.09990       1.11226 
   3501.69500       0.34285       2.53239       4.65469       0.03197       1.01781       1.06128       1.08925       1.09657       1.11143 
   3501.54260       0.37508       2.53212       4.55342       0.03213       1.00837       1.05094       1.08274       1.09166       1.10817 
   3501.39020       0.40577       2.53978       4.38692       0.03151       1.00105       1.04288       1.07580       1.08371       1.10144 
   3501.23780       0.39784       2.53955       4.25810       0.02645       0.99739       1.03880       1.07049       1.07529       1.09538 
   3501.08540       0.41448       2.55920       4.17335       0.03189       0.99750       1.03881       1.06861       1.07459       1.09827 
   3500.93300       0.45584       2.55787       4.14905       0.02851       1.03254       1.07671       1.09716       1.09561       1.12143 
   3500.78060       0.49416       2.56627       4.25439       0.02856       1.06708       1.11413       1.13681       1.13240       1.15613 
   3500.62820       0.43623       2.64525       4.64129       0.03460       1.09347       1.14308       1.16647       1.15913       1.18226 
   3500.47580       0.35416       2.78962       5.29377       0.05243       1.15569       1.21161       1.25145       1.22643       1.25415 
   3500.32340       0.30609       2.88803       5.77792       0.06234       1.26139       1.32897       1.41825       1.49057       1.51603 
   3500.17100       0.29160       2.81597       5.65655       0.04703       1.31562       1.39087       1.60809       1.96118       2.04866 
   3500.01860       0.33313       2.65947       5.12356       0.02879       1.32764       1.40611       1.60810       1.87127       2.07247 
