~Version Information
VERS  .          2.0                              :CWLS Log Ascii Standard - Version 2.0
WRAP  .          NO                               :One line per depth step
~Well Information Block
#MNEM.UNIT       Data Type                        Information
#---------       ---------                        -------------------------------
STRT  .M         4768.13900                       :START DEPTH
STOP  .M         2401.97600                       :STOP DEPTH
STEP  .M         -0.15240                         :INCREMENT
NULL  .          -999.25                          :NULL DATA VALUE
COMP  .          INPEX Browse Ltd.                :COMPANY
WELL  .          Gorgonicthys-1                   :WELL
FLD   .          GORGONICHTHYS                    :FIELD
LOC   .                                           :LOCATION
PROV  .          WA                               :PROVINCE
STAT  .          WA                               :STATE
CNTY  .                                           :COUNTY
CTRY  .          Australia                        :COUNTRY
DATE  .                                           :DATE
UWI   .          Gorgonicthys-1                   :UNIQUE WELL UWI
LIC   .                                           :LICENSE NUMBER
API   .                                           :API NUMBER
SRVC  .          SLB                              :SERVICE COMPANY
~Parameter Information Block
#MNEM.UNIT       Value                            Description
#---------       ---------                        -------------
LONG  .DEG       123.126999                       :Well Surface Location
LATI  .DEG       -13.978000                       :Well Surface Location
XWELL .M         513716.073431                    :X-coordinate of Well Head
YWELL .M         8454697.816648                   :Y-coordinate of Well Head
~Curve Information Block
#MNEM.UNIT       API Code            Curve    Description
#--------        --------------      -----    -------------------
DEPT  .M                             :0       Index
TNPH  .V/V                           :1       Thermal Neutron Porosity (Ratio Method) in Selected Lithology
RHOB  .G/C3                          :2       Bulk Density                  
PEF   .                              :3       Photoelectric Factor          
DRHO  .G/C3                          :4       Bulk Density Correction       
AT90  .OHMM                          :5       AIT Two Foot Resistivity A90  
AT60  .OHMM                          :6       AIT Two Foot Resistivity A60  
AT30  .OHMM                          :7       AIT Two Foot Resistivity A30  
AT20  .OHMM                          :8       AIT Two Foot Resistivity A20  
AT10  .OHMM                          :9       AIT Two Foot Resistivity A10  
~Ascii Data Section
# ...
   4455.41420       0.12127       2.51590       4.26397       0.06213      22.77312      22.30083      22.82409      22.96554      23.33419 
   4455.26180       0.14053       2.54377       4.17501       0.05341      18.00636      17.48741      17.34772      16.92925      17.23430 
   4455.10940       0.15078       2.51767       4.19165       0.04183      14.49131      14.23519      14.40262      13.90214      13.90592 
   4454.95700       0.14103       2.44906       3.78803       0.02639      15.21090      14.94072      15.06883      14.30525      13.92297 
   4454.80460       0.11981       2.40167       3.64316       0.01977      18.31810      17.92760      18.54009      17.25990      16.77344 
   4454.65220       0.10504       2.37195       3.45231       0.01827      22.37482      21.87914      22.40422      21.20807      21.14365 
   4454.49980       0.09625       2.38140       3.55233       0.02675      26.39737      25.80107      26.65308      25.22330      25.40135 
   4454.34740       0.09566       2.37865       3.75659       0.03874      30.45868      29.80850      31.42418      29.77845      29.90615 
   4454.19500       0.09673       2.37757       3.93088       0.05884      34.45206      33.82870      35.76484      34.63408      34.92784 
   4454.04260       0.09958       2.35979       4.23924       0.07329      32.13437      31.57783      37.92940      37.84456      38.66910 
   4453.89020       0.09415       2.31880       4.64569       0.07274      34.03086      33.71913      37.55783      39.73088      41.15957 
   4453.73780       0.08355       2.32008       5.19007       0.07042      32.75727      32.60835      38.20237      42.63947      44.14751 
   4453.58540       0.07572       2.36885       5.00787       0.07354      39.14782      39.43743      39.41761      43.99850      44.03254 
   4453.43300       0.08408       2.44987       4.45184       0.08169      35.53911      36.00021      35.73552      36.89257      35.86158 
   4453.28060       0.10008       2.48612       3.84912       0.08325      30.01148      30.85251      30.19037      27.19613      26.60430 
   4453.12820       0.10598       2.48801       3.89732       0.08271      25.90954      26.79609      27.30931      22.90524      21.89642 
   4452.97580       0.09460       2.50470       4.56002       0.08559      26.62619      27.53880      26.64790      23.97445      21.26720 
   4452.82340       0.07903       2.50852       5.52735       0.07824      33.23215      34.24761      31.22414      29.82003      24.03942 
   4452.67100       0.06904       2.49731       5.46327       0.06122      41.41277      42.63256      38.70324      40.71298      30.25347 
   4452.51860       0.05731       2.47664       4.75479       0.04318      50.67363      52.22371      52.54383      55.24157      39.05351 
   4452.36620       0.04341       2.47348       4.13006       0.03626      58.62649      60.87251      61.68926      67.34110      47.02033 
   4452.21380       0.04565       2.46606       3.90785       0.03752      46.69493      48.17387      60.20869      66.64735      48.02323 
   4452.06140       0.06243       2.44329       3.86959       0.03676      38.94260      39.86971      46.17525      52.75766      40.75988 
   4451.90900       0.08907       2.41513       3.90628       0.03115      35.65646      36.34275      37.54036      38.97354      32.85718 
   4451.75660       0.09923       2.39687       4.05670       0.02736      30.92625      31.34070      30.95695      31.68400      28.60901 
   4451.60420       0.09820       2.41047       3.88487       0.03967      31.92853      32.25417      30.26062      30.06524      27.94877 
   4451.45180       0.08642       2.41570       3.80261       0.05817      35.60493      36.03341      33.86361      34.40562      31.65660 
   4451.29940       0.07801       2.37860       3.88364       0.07249      45.83669      46.65617      44.30633      46.55864      41.72023 
   4451.14700       0.06792       2.33871       4.43372       0.08863      61.93553      63.96055      62.83830      64.59069      56.33430 
   4450.99460       0.06460       2.30047       5.09572       0.09675      78.54565      82.30963      79.77065      82.07186      68.10519 
   4450.84220       0.05962       2.29530       5.31411       0.09322      97.03703     100.19183      90.70309      92.12950      73.94604 
   4450.68980       0.05728       2.30552       5.62863       0.07300      88.45704      92.59245      88.79511      88.88643      70.84077 
   4450.53740       0.06474       2.36000       5.24045       0.05836      81.58049      86.15180      75.13416      75.27133      61.81709 
   4450.38500       0.07659       2.42276       4.35203       0.04745      59.24611      62.41908      55.46618      54.97457      48.03682 
   4450.23260       0.08108       2.46712       3.58390       0.04411      45.89963      48.55922      43.30785      40.49314      36.96504 
   4450.08020       0.07499       2.47714       3.26154       0.04850      43.74745      46.49551      40.75565      37.65345      34.16158 
   4449.92780       0.06534       2.47323       3.48456       0.06280      49.11269      52.24741      47.34979      45.05185      40.34764 
   4449.77540       0.05976       2.48206       3.88110       0.08132      58.52797      61.63524      57.54496      57.34520      52.46431 
   4449.62300       0.05762       2.47753       4.20801       0.09378      60.76295      63.98510      59.85087      61.18330      56.77664 
   4449.47060       0.05894       2.48942       3.99185       0.10720      55.11455      57.79532      54.24126      57.35646      53.17255 
   4449.31820       0.05799       2.48650       3.90032       0.11528      50.17139      52.61563      51.60498      56.12329      53.83915 
   4449.16580       0.06008       2.47120       3.95075       0.11234      46.92191      48.63782      50.34414      54.65394      55.70244 
   4449.01340       0.07670       2.42765       4.24700       0.09490      41.98355      42.67914      41.82711      43.77838      46.55008 
   4448.86100       0.11200       2.42135       4.18483       0.07660      28.85251      28.92299      28.84170      28.12826      30.79301 
   4448.70860       0.14793       2.44487       4.38917       0.06820      22.60920      22.37595      21.26783      18.77894      20.70363 
   4448.55620       0.16341       2.45890       4.18993       0.05951      17.48649      17.29316      17.28796      15.83612      16.91873 
   4448.40380       0.14805       2.41976       4.07102       0.04934      17.68309      17.56426      17.48129      16.69459      17.16127 
   4448.25140       0.13953       2.37217       3.87050       0.04085      19.82909      19.65997      19.71837      19.27162      19.98262 
   4448.09900       0.13290       2.37006       3.98946       0.04801      22.47110      22.27170      22.41986      21.89668      23.92969 
   4447.94660       0.11472       2.39814       3.76783       0.05599      25.64856      25.38399      25.47011      24.68136      28.28165 
   4447.79420       0.09469       2.44589       3.18284       0.06478      29.58234      29.26866      29.71078      28.80936      34.46226 
   4447.64180       0.08215       2.47557       2.75708       0.06701      34.77378      34.41598      35.20578      35.52633      44.66222 
   4447.48940       0.07942       2.48023       2.45422       0.06635      37.97981      37.43038      41.79862      45.37669      59.06715 
   4447.33700       0.08375       2.45261       2.59025       0.05697      41.45934      40.86691      50.90339      56.38832      73.46734 
   4447.18460       0.08622       2.44078       2.76061       0.04883      45.97646      46.00152      58.89063      64.12456      80.27562 
   4447.03220       0.08307       2.42443       3.22101       0.03364      51.92408      52.40034      62.41909      66.97430      77.02030 
   4446.87980       0.07335       2.43082       3.35785       0.02370      59.06602      60.14106      63.89463      67.37389      70.83230 
