~Version Information
VERS  .          2.0                              :CWLS Log Ascii Standard - Version 2.0
WRAP  .          NO                               :One line per depth step
~Well Information Block
#MNEM.UNIT       Data Type                        Information
#---------       ---------                        -------------------------------
STRT  .M         4768.13900                       :START DEPTH
STOP  .M         2401.97600                       :STOP DEPTH
STEP  .M         -0.15240                         :INCREMENT
NULL  .          -999.25                          :NULL DATA VALUE
COMP  .          INPEX Browse Ltd.                :COMPANY
WELL  .          Gorgonicthys-1                   :WELL
FLD   .          GORGONICHTHYS                    :FIELD
LOC   .                                           :LOCATION
PROV  .          WA                               :PROVINCE
STAT  .          WA                               :STATE
CNTY  .                                           :COUNTY
CTRY  .          Australia                        :COUNTRY
DATE  .                                           :DATE
UWI   .          Gorgonicthys-1                   :UNIQUE WELL UWI
LIC   .                                           :LICENSE NUMBER
API   .                                           :API NUMBER
SRVC  .          SLB                              :SERVICE COMPANY
~Parameter Information Block
#MNEM.UNIT       Value                            Description
#---------       ---------                        -------------
LONG  .DEG       123.126999                       :Well Surface Location
LATI  .DEG       -13.978000                       :Well Surface Location
XWELL .M         513716.073431                    :X-coordinate of Well Head
YWELL .M         8454697.816648                   :Y-coordinate of Well Head
~Curve Information Block
#MNEM.UNIT       API Code            Curve    Description
#--------        --------------      -----    -------------------
DEPT  .M                             :0       Index
TNPH  .V/V                           :1       Thermal Neutron Porosity (Ratio Method) in Selected Lithology
RHOB  .G/C3                          :2       Bulk Density                  
PEF   .                              :3       Photoelectric Factor          
DRHO  .G/C3                          :4       Bulk Density Correction       
AT90  .OHMM                          :5       AIT Two Foot Resistivity A90  
AT60  .OHMM                          :6       AIT Two Foot Resistivity A60  
AT30  .OHMM                          :7       AIT Two Foot Resistivity A30  
AT20  .OHMM                          :8       AIT Two Foot Resistivity A20  
AT10  .OHMM                          :9       AIT Two Foot Resistivity A10  
~Ascii Data Section
# ...
   2570.37860       0.43604       2.37956       4.40008       0.00810       0.61188       0.61135       0.60173       0.59494       0.58997 
   2570.22620       0.36592       2.38975       4.43229       0.01177       0.61224       0.61150       0.60349       0.59799       0.59382 
   2570.07380       0.38720       2.39524       4.44901       0.01381       0.61050       0.60968       0.60287       0.59803       0.59485 
   2569.92140       0.39674       2.40635       4.40812       0.02187       0.60585       0.60506       0.59788       0.59123       0.58922 
   2569.76900       0.43664       2.39442       4.34532       0.01916       0.59519       0.59443       0.58800       0.57924       0.57795 
   2569.61660       0.37124       2.37852       4.25850       0.01406       0.58718       0.58631       0.57823       0.56850       0.56704 
   2569.46420       0.33211       2.36393       4.21918       0.00426       0.57734       0.57648       0.57033       0.56300       0.56108 
   2569.31180       0.38932       2.37486       4.20945       0.00478       0.57430       0.57364       0.57107       0.56506       0.56268 
   2569.15940       0.45522       2.38473       4.28368       0.00663       0.58288       0.58228       0.58131       0.57508       0.57248 
   2569.00700       0.48943       2.37832       4.40451       0.00595       0.59970       0.59919       0.60031       0.59447       0.59189 
   2568.85460       0.44628       2.37279       4.51798       0.00915       0.62230       0.62193       0.62567       0.62152       0.61996 
   2568.70220       0.37503       2.37774       4.59697       0.01769       0.64620       0.64601       0.65193       0.64868       0.64638 
   2568.54980       0.41602       2.37532       4.62904       0.01871       0.64632       0.64639       0.65648       0.65155       0.64827 
   2568.39740       0.43232       2.37695       4.60363       0.01924       0.62235       0.62265       0.63492       0.63163       0.63063 
   2568.24500       0.45893       2.36886       4.51300       0.01229       0.61111       0.61156       0.61743       0.61460       0.61449 
   2568.09260       0.44741       2.37710       4.37256       0.01324       0.60202       0.60267       0.60378       0.60029       0.59919 
   2567.94020       0.50744       2.37410       4.29715       0.00998       0.59462       0.59548       0.59154       0.58751       0.58487 
   2567.78780       0.52284       2.37502       4.30236       0.01074       0.58781       0.58881       0.58177       0.57693       0.57386 
   2567.63540       0.48838       2.37877       4.38405       0.01438       0.57981       0.58093       0.57379       0.57055       0.56733 
   2567.48300       0.51188       2.37283       4.47468       0.01323       0.58357       0.58476       0.57544       0.57275       0.56894 
   2567.33060       0.48136       2.36419       4.54346       0.01020       0.58761       0.58892       0.57701       0.57974       0.57237 
   2567.17820       0.47043       2.35934       4.60411       0.00797       0.58980       0.59129       0.57679       0.57224       0.56878 
   2567.02580       0.37386       2.37179       4.64102       0.01266       0.59346       0.59499       0.58011       0.57095       0.56847 
   2566.87340       0.36680       2.37976       4.62403       0.01524       0.60120       0.60268       0.59044       0.58403       0.57665 
   2566.72100       0.32179       2.38194       4.52186       0.01374       0.61012       0.61155       0.60101       0.59497       0.58976 
   2566.56860       0.32692       2.39007       4.36199       0.01670       0.62783       0.62923       0.62159       0.61422       0.60884 
   2566.41620       0.37234       2.40237       4.23883       0.01995       0.64828       0.64956       0.64528       0.63914       0.63296 
   2566.26380       0.38472       2.41901       4.17256       0.02889       0.66704       0.66809       0.66269       0.65693       0.65045 
   2566.11140       0.42079       2.42093       4.18037       0.03334       0.65606       0.65680       0.65371       0.64702       0.64301 
   2565.95900       0.36630       2.42632       4.22764       0.04070       0.63544       0.63589       0.63416       0.62538       0.62203 
   2565.80660       0.44553       2.42664       4.33681       0.04221       0.62435       0.62474       0.61966       0.61232       0.60767 
   2565.65420       0.46564       2.42401       4.48133       0.04143       0.61818       0.61848       0.61284       0.60591       0.60075 
   2565.50180       0.45161       2.42241       4.58413       0.04056       0.61438       0.61438       0.60725       0.60081       0.59528 
   2565.34940       0.41592       2.42438       4.60690       0.04157       0.61240       0.61250       0.60242       0.59662       0.59105 
   2565.19700       0.43967       2.42402       4.56361       0.04045       0.61623       0.61651       0.60584       0.59917       0.59326 
   2565.04460       0.46160       2.41195       4.51061       0.03322       0.62863       0.62932       0.61810       0.61252       0.60524 
   2564.89220       0.49682       2.39507       4.45413       0.02343       0.64058       0.64150       0.62949       0.62530       0.61801 
   2564.73980       0.47708       2.38269       4.40680       0.01474       0.64232       0.64346       0.63070       0.62481       0.61931 
   2564.58740       0.47172       2.37957       4.37312       0.01127       0.63026       0.63160       0.62056       0.61430       0.60922 
   2564.43500       0.43972       2.38245       4.37461       0.01160       0.62033       0.62197       0.61119       0.60241       0.59642 
   2564.28260       0.50656       2.38973       4.42588       0.01490       0.60765       0.60918       0.60042       0.59271       0.58612 
   2564.13020       0.48169       2.40041       4.49954       0.02211       0.60718       0.60877       0.59857       0.59152       0.58425 
   2563.97780       0.47070       2.40172       4.52954       0.02401       0.61253       0.61418       0.60449       0.59765       0.59067 
   2563.82540       0.46903       2.40018       4.49291       0.02597       0.61783       0.61961       0.60900       0.60296       0.59641 
   2563.67300       0.50395       2.40242       4.37440       0.03024       0.61945       0.62100       0.61104       0.60404       0.59777 
   2563.52060       0.46332       2.39279       4.27897       0.02722       0.61533       0.61674       0.60666       0.59975       0.59383 
   2563.36820       0.41998       2.39270       4.17651       0.02751       0.60803       0.60928       0.59927       0.59093       0.58513 
   2563.21580       0.35439       2.38919       4.13797       0.02413       0.60223       0.60327       0.59290       0.58565       0.57997 
   2563.06340       0.36612       2.39115       4.17566       0.02519       0.60254       0.60339       0.59295       0.58635       0.58077 
   2562.91100       0.38367       2.38255       4.29440       0.02114       0.60156       0.60221       0.59144       0.58602       0.58012 
   2562.75860       0.42176       2.36649       4.44915       0.01263       0.59914       0.59956       0.58864       0.58112       0.57561 
   2562.60620       0.41175       2.37932       4.53721       0.02145       0.59865       0.59891       0.58685       0.57753       0.57234 
   2562.45380       0.43838       2.39655       4.56753       0.03128       0.60204       0.60204       0.59022       0.57983       0.57405 
   2562.30140       0.40897       2.41375       4.54124       0.04058       0.60825       0.60796       0.59606       0.58648       0.58033 
   2562.14900       0.42310       2.41365       4.48187       0.03799       0.61601       0.61542       0.60221       0.59374       0.58794 
   2561.99660       0.35700       2.39774       4.42439       0.02619       0.62297       0.62207       0.60940       0.60223       0.59641 
   2561.84420       0.47639       2.39653       4.37063       0.02244       0.63416       0.63293       0.61765       0.61096       0.60519 
