~Version Information
VERS  .          2.0                              :CWLS Log Ascii Standard - Version 2.0
WRAP  .          NO                               :One line per depth step
~Well Information Block
#MNEM.UNIT       Data Type                        Information
#---------       ---------                        -------------------------------
STRT  .M         4768.13900                       :START DEPTH
STOP  .M         2401.97600                       :STOP DEPTH
STEP  .M         -0.15240                         :INCREMENT
NULL  .          -999.25                          :NULL DATA VALUE
COMP  .          INPEX Browse Ltd.                :COMPANY
WELL  .          Gorgonicthys-1                   :WELL
FLD   .          GORGONICHTHYS                    :FIELD
LOC   .                                           :LOCATION
PROV  .          WA                               :PROVINCE
STAT  .          WA                               :STATE
CNTY  .                                           :COUNTY
CTRY  .          Australia                        :COUNTRY
DATE  .                                           :DATE
UWI   .          Gorgonicthys-1                   :UNIQUE WELL UWI
LIC   .                                           :LICENSE NUMBER
API   .                                           :API NUMBER
SRVC  .          SLB                              :SERVICE COMPANY
~Parameter Information Block
#MNEM.UNIT       Value                            Description
#---------       ---------                        -------------
LONG  .DEG       123.126999                       :Well Surface Location
LATI  .DEG       -13.978000                       :Well Surface Location
XWELL .M         513716.073431                    :X-coordinate of Well Head
YWELL .M         8454697.816648                   :Y-coordinate of Well Head
~Curve Information Block
#MNEM.UNIT       API Code            Curve    Description
#--------        --------------      -----    -------------------
DEPT  .M                             :0       Index
TNPH  .V/V                           :1       Thermal Neutron Porosity (Ratio Method) in Selected Lithology
RHOB  .G/C3                          :2       Bulk Density                  
PEF   .                              :3       Photoelectric Factor          
DRHO  .G/C3                          :4       Bulk Density Correction       
AT90  .OHMM                          :5       AIT Two Foot Resistivity A90  
AT60  .OHMM                          :6       AIT Two Foot Resistivity A60  
AT30  .OHMM                          :7       AIT Two Foot Resistivity A30  
AT20  .OHMM                          :8       AIT Two Foot Resistivity A20  
AT10  .OHMM                          :9       AIT Two Foot Resistivity A10  
~Ascii Data Section
# ...
   3986.32700       0.01351       2.53515       2.59526      -0.01069      33.51200      35.36068      32.52891      30.66104      27.78922 
   3986.17460       0.00998       2.53619       2.47561      -0.00983      42.18380      44.32251      43.54440      42.74485      37.71835 
   3986.02220       0.00827       2.53047       2.40369      -0.00941      55.63713      59.23886      64.49074      63.85760      56.51592 
   3985.86980       0.00771       2.52234       2.32277      -0.00902      70.18710      76.33932      90.37770      89.59927      77.86922 
   3985.71740       0.00681       2.51921       2.25942      -0.00789      90.32285      98.26965     114.09304     114.16114     100.69215 
   3985.56500       0.00603       2.52317       2.20690      -0.00587     107.12546     118.37869     139.51236     146.13307     136.35683 
   3985.41260       0.00590       2.52779       2.17880      -0.00425     127.10719     140.75063     171.75937     192.03239     187.07243 
   3985.26020       0.00589       2.53222       2.17901      -0.00366     121.83976     138.49826     176.39749     230.33971     224.78149 
   3985.10780       0.00524       2.54207       2.21262      -0.00356     134.02071     162.09894     177.29947     242.42477     236.51642 
   3984.95540       0.00371       2.56406       2.29004      -0.00292     152.72881     200.18535     188.49002     238.51430     234.89732 
   3984.80300       0.00193       2.59043       2.43193      -0.00193     153.24541     207.38098     190.00191     234.36221     231.05879 
   3984.65060       0.00094       2.60417       2.54760      -0.00071     149.06232     204.39136     183.46112     229.82542     226.91339 
   3984.49820       0.00257       2.59304       2.56013       0.00135     139.03630     193.38647     174.73506     219.16905     216.08823 
   3984.34580       0.01034       2.56148       2.45653       0.00334     120.95628     165.33191     147.26154     199.13080     181.99422 
   3984.19340       0.02042       2.52516       2.51225       0.00386      97.53088     127.81574     125.65505     166.74706     137.75133 
   3984.04100       0.02593       2.49957       2.87431       0.00224      84.85362     109.27915     115.24625     138.58041     105.38283 
   3983.88860       0.02469       2.50340       3.22758       0.00121      79.55454     102.32286     103.78951     113.99111      82.12498 
   3983.73620       0.03216       2.53717       3.21414       0.00164      62.33269      76.47468      70.18399      74.91997      57.44101 
   3983.58380       0.05869       2.58320       2.96740       0.00287      45.37981      53.12772      49.28939      48.33211      41.29347 
   3983.43140       0.08374       2.61286       2.95388       0.00352      40.80796      46.93586      40.58571      41.28088      36.48935 
   3983.27900       0.08018       2.61351       3.36694       0.00325      38.61512      42.69896      39.04860      42.52367      38.99830 
   3983.12660       0.05129       2.60049       3.64260       0.00245      33.87046      37.00578      34.45176      36.85086      36.48044 
   3982.97420       0.02351       2.58289       3.31412       0.00041      24.95315      26.54646      25.40502      26.19954      26.79230 
   3982.82180       0.00989       2.56622       2.79163      -0.00251      19.68671      20.56673      20.46959      20.53418      20.94268 
   3982.66940       0.00719       2.55048       2.46307      -0.00611      19.32382      20.10042      20.21612      20.40908      20.60470 
   3982.51700       0.01031       2.54462       2.36358      -0.00868      24.18152      25.38758      26.03179      26.58816      26.58859 
   3982.36460       0.01297       2.55105       2.37802      -0.00992      35.76152      38.36862      39.04349      44.26812      44.47948 
   3982.21220       0.01077       2.56048       2.47500      -0.01046      61.57542      68.15477      73.49137      81.01709      81.98545 
   3982.05980       0.00499       2.56442       2.53139      -0.01102      87.62733     102.38893      98.86057     116.79170     113.78395 
   3981.90740       0.00053       2.55996       2.50427      -0.01166      93.69299     105.93321     104.19928     114.63850     105.56138 
   3981.75500      -0.00208       2.55321       2.38167      -0.01212      90.49750     102.99963      98.48331      98.75508      82.20975 
   3981.60260      -0.00338       2.54809       2.33651      -0.01242      87.14424      99.55943      91.85535      89.10152      72.82157 
   3981.45020      -0.00261       2.54559       2.38611      -0.01290      95.22939     109.91334      96.59494      90.35737      77.55342 
   3981.29780       0.00073       2.54279       2.46268      -0.01341     105.63010     125.38265     108.39462     104.13663      93.75776 
   3981.14540       0.00576       2.53787       2.47159      -0.01373     119.12542     142.78094     120.76840     121.83475     110.26724 
   3980.99300       0.01077       2.53641       2.42199      -0.01280     125.53817     152.54605     126.60695     131.35561     117.34222 
   3980.84060       0.01339       2.54075       2.39209      -0.01052     126.25292     156.59579     125.63945     138.27031     122.25475 
   3980.68820       0.01196       2.54666       2.39428      -0.00779     124.64360     156.42226     126.79497     139.34671     123.33198 
   3980.53580       0.00781       2.54832       2.41509      -0.00579     113.53487     143.29248     118.23553     129.57809     113.94855 
   3980.38340       0.00473       2.54475       2.44309      -0.00494     105.42194     131.83142     110.72601     120.16771     102.85142 
   3980.23100       0.00486       2.53969       2.45375      -0.00503     100.73822     122.57630     104.55364     113.61002      95.92042 
   3980.07860       0.00746       2.53549       2.44006      -0.00556      95.75919     116.57127     104.65761     113.19269      95.11173 
   3979.92620       0.01054       2.53771       2.40520      -0.00508      90.58488     108.78466     106.38607     122.60241      98.56481 
   3979.77380       0.01279       2.54712       2.40839      -0.00294      86.96181     101.37157     108.79002     133.69769     100.24679 
   3979.62140       0.01674       2.55900       2.46157       0.00068      77.64973      92.33144     108.81882     136.05385     100.43635 
   3979.46900       0.02754       2.56258       2.59212       0.00568      72.44798      84.95176     116.61713     130.88208     104.75875 
   3979.31660       0.04447       2.54696       2.80435       0.01557      68.91470      80.88250     113.49263     124.83204     112.08083 
   3979.16420       0.05750       2.51846       3.17003       0.03793      62.77857      72.74448     101.67445     114.92391     109.25459 
   3979.01180       0.06022       2.47118       3.95108       0.06088      52.75808      61.27447      84.53924      95.37109     102.05494 
   3978.85940       0.05856       2.38772       5.47936       0.06965      46.36659      50.08176      65.64785      74.12975      93.55483 
   3978.70700       0.06108       2.29714       7.54323       0.06962      41.77672      45.33208      52.67790      59.25205      73.73936 
   3978.55460       0.06178       2.21453       9.16004       0.06395      39.23013      41.49305      45.20886      52.04705      57.24024 
   3978.40220       0.05562       2.12692      10.18776       0.04810      37.15174      38.64123      39.78154      46.65533      46.85245 
   3978.24980       0.04607       1.99689      12.22328       0.02142      35.94357      37.00655      35.83060      39.64270      39.43837 
   3978.09740       0.03557       1.88122      16.04918       0.00488      36.59846      37.76428      35.73717      35.89972      34.68000 
   3977.94500       0.02903       1.84530      21.17768       0.00139      36.84837      38.72059      36.35319      35.31717      32.16664 
   3977.79260       0.02621       1.95578      22.69822       0.01012      37.63789      39.85970      36.10455      35.56898      30.91650 
