~Version Information
VERS  .          2.0                              :CWLS Log Ascii Standard - Version 2.0
WRAP  .          NO                               :One line per depth step
~Well Information Block
#MNEM.UNIT       Data Type                        Information
#---------       ---------                        -------------------------------
STRT  .M         4768.13900                       :START DEPTH
STOP  .M         2401.97600                       :STOP DEPTH
STEP  .M         -0.15240                         :INCREMENT
NULL  .          -999.25                          :NULL DATA VALUE
COMP  .          INPEX Browse Ltd.                :COMPANY
WELL  .          Gorgonicthys-1                   :WELL
FLD   .          GORGONICHTHYS                    :FIELD
LOC   .                                           :LOCATION
PROV  .          WA                               :PROVINCE
STAT  .          WA                               :STATE
CNTY  .                                           :COUNTY
CTRY  .          Australia                        :COUNTRY
DATE  .                                           :DATE
UWI   .          Gorgonicthys-1                   :UNIQUE WELL UWI
LIC   .                                           :LICENSE NUMBER
API   .                                           :API NUMBER
SRVC  .          SLB                              :SERVICE COMPANY
~Parameter Information Block
#MNEM.UNIT       Value                            Description
#---------       ---------                        -------------
LONG  .DEG       123.126999                       :Well Surface Location
LATI  .DEG       -13.978000                       :Well Surface Location
XWELL .M         513716.073431                    :X-coordinate of Well Head
YWELL .M         8454697.816648                   :Y-coordinate of Well Head
~Curve Information Block
#MNEM.UNIT       API Code            Curve    Description
#--------        --------------      -----    -------------------
DEPT  .M                             :0       Index
TNPH  .V/V                           :1       Thermal Neutron Porosity (Ratio Method) in Selected Lithology
RHOB  .G/C3                          :2       Bulk Density                  
PEF   .                              :3       Photoelectric Factor          
DRHO  .G/C3                          :4       Bulk Density Correction       
AT90  .OHMM                          :5       AIT Two Foot Resistivity A90  
AT60  .OHMM                          :6       AIT Two Foot Resistivity A60  
AT30  .OHMM                          :7       AIT Two Foot Resistivity A30  
AT20  .OHMM                          :8       AIT Two Foot Resistivity A20  
AT10  .OHMM                          :9       AIT Two Foot Resistivity A10  
~Ascii Data Section
# ...
   3039.46580       0.35396       2.46981       4.33991       0.04880       0.71219       0.72786       0.73256       0.73311       0.73966 
   3039.31340       0.32603       2.46836       4.46292       0.04416       0.72330       0.73929       0.74863       0.75623       0.76313 
   3039.16100       0.34832       2.45050       4.52342       0.03441       0.73477       0.75113       0.76391       0.77335       0.78328 
   3039.00860       0.34400       2.43923       4.47824       0.03208       0.74141       0.75791       0.76878       0.76956       0.78106 
   3038.85620       0.38992       2.44536       4.32793       0.03720       0.73264       0.74862       0.75999       0.75578       0.76562 
   3038.70380       0.38872       2.44451       4.14631       0.04260       0.72957       0.74520       0.75638       0.74855       0.75789 
   3038.55140       0.37727       2.44561       3.96716       0.04692       0.72390       0.73929       0.74995       0.74952       0.75924 
   3038.39900       0.33966       2.44250       3.86056       0.05000       0.72543       0.74084       0.75097       0.75186       0.76135 
   3038.24660       0.30955       2.43181       3.84700       0.04025       0.72746       0.74288       0.75237       0.75455       0.76401 
   3038.09420       0.33220       2.42856       3.94632       0.03416       0.74061       0.75659       0.76162       0.76339       0.77290 
   3037.94180       0.32754       2.42283       4.11933       0.02699       0.75140       0.76805       0.77707       0.77940       0.78913 
   3037.78940       0.36243       2.43396       4.24130       0.03475       0.76359       0.78086       0.79149       0.79765       0.80842 
   3037.63700       0.36200       2.42170       4.24506       0.03270       0.77175       0.78951       0.80273       0.80965       0.82289 
   3037.48460       0.35038       2.40066       4.11310       0.02600       0.78422       0.80264       0.81404       0.81881       0.83273 
   3037.33220       0.31620       2.37535       3.93121       0.01480       0.79133       0.81012       0.82084       0.82507       0.83886 
   3037.17980       0.33007       2.35481       3.80094       0.00665       0.79326       0.81222       0.82006       0.82067       0.83597 
   3037.02740       0.33120       2.35962       3.68713       0.00637       0.78937       0.80818       0.81856       0.81814       0.83355 
   3036.87500       0.32888       2.36709       3.64931       0.00575       0.79899       0.81843       0.83141       0.83487       0.84858 
   3036.72260       0.30328       2.38380       3.69772       0.00800       0.81937       0.83988       0.85561       0.86421       0.87830 
   3036.57020       0.26027       2.37735       3.87521       0.00664       0.83303       0.85453       0.87245       0.88157       0.89903 
   3036.41780       0.25453       2.38211       4.02940       0.01647       0.83531       0.85730       0.87614       0.88137       0.90002 
   3036.26540       0.25091       2.39585       4.07846       0.03172       0.83062       0.85279       0.86873       0.87386       0.89129 
   3036.11300       0.31503       2.41250       4.03678       0.04709       0.81769       0.83960       0.85378       0.85866       0.87496 
   3035.96060       0.30774       2.42435       3.95931       0.05408       0.80115       0.82252       0.83409       0.83453       0.84976 
   3035.80820       0.31640       2.43343       3.86152       0.05487       0.77995       0.80057       0.81043       0.81440       0.82864 
   3035.65580       0.31551       2.44567       3.78147       0.05399       0.77147       0.79202       0.80173       0.80690       0.82064 
   3035.50340       0.29943       2.44118       3.79793       0.04722       0.77442       0.79548       0.80419       0.80960       0.82279 
   3035.35100       0.29683       2.42826       3.91860       0.03924       0.77881       0.80044       0.80901       0.81667       0.83074 
   3035.19860       0.30335       2.41870       4.08698       0.03276       0.78330       0.80549       0.81486       0.82196       0.83718 
   3035.04620       0.35976       2.41551       4.23384       0.02713       0.78377       0.80624       0.81754       0.82351       0.83961 
   3034.89380       0.44208       2.40801       4.35271       0.02201       0.78203       0.80457       0.81767       0.82138       0.83754 
   3034.74140       0.46807       2.39481       4.38942       0.01348       0.77871       0.80137       0.81543       0.81038       0.82851 
   3034.58900       0.44542       2.38348       4.33694       0.00699       0.78610       0.80915       0.82318       0.81682       0.83754 
   3034.43660       0.39609       2.38768       4.19094       0.00511       0.78962       0.81312       0.84549       0.87060       0.88916 
   3034.28420       0.38048       2.40766       4.00039       0.01468       0.78577       0.80915       0.85305       0.90815       0.93539 
   3034.13180       0.34690       2.41923       3.86526       0.02086       0.77983       0.80266       0.83403       0.84597       0.88243 
   3033.97940       0.31548       2.41541       3.83000       0.02131       0.76557       0.78723       0.81034       0.79578       0.81444 
   3033.82700       0.29137       2.40328       3.89497       0.01799       0.75980       0.78110       0.80301       0.78817       0.80022 
   3033.67460       0.31801       2.40025       3.99598       0.01892       0.74517       0.76544       0.78652       0.79141       0.80551 
   3033.52220       0.32005       2.40662       4.07480       0.02716       0.75220       0.77270       0.79074       0.79756       0.81122 
   3033.36980       0.32301       2.41634       4.10988       0.03594       0.76367       0.78467       0.79939       0.81088       0.82319 
   3033.21740       0.29238       2.41073       4.09179       0.03181       0.77517       0.79670       0.80835       0.82072       0.83330 
   3033.06500       0.32225       2.40039       4.02728       0.02118       0.78073       0.80248       0.81147       0.82180       0.83552 
   3032.91260       0.36591       2.38789       3.95484       0.00794       0.78406       0.80591       0.81334       0.82213       0.83539 
   3032.76020       0.40500       2.40336       3.88622       0.01600       0.78626       0.80814       0.81497       0.82316       0.83471 
   3032.60780       0.40838       2.41312       3.86475       0.02186       0.78063       0.80211       0.81247       0.82154       0.83094 
   3032.45540       0.39821       2.41321       3.90024       0.02468       0.77192       0.79288       0.80380       0.81503       0.82331 
   3032.30300       0.47430       2.40379       4.00125       0.02217       0.76526       0.78573       0.79260       0.79954       0.80775 
   3032.15060       0.46341       2.40483       4.11816       0.02328       0.75350       0.77330       0.77638       0.77891       0.78714 
   3031.99820       0.50269       2.41391       4.21672       0.02615       0.74422       0.76331       0.76490       0.76301       0.76995 
   3031.84580       0.33330       2.43275       4.28762       0.03385       0.74164       0.76033       0.76387       0.76204       0.76669 
   3031.69340       0.30275       2.46596       4.31485       0.04845       0.75262       0.77157       0.77763       0.77913       0.78296 
   3031.54100       0.24634       2.48500       4.29755       0.05671       0.78604       0.80649       0.81287       0.81735       0.82141 
   3031.38860       0.27270       2.47341       4.18799       0.04766       0.82419       0.84645       0.85628       0.87236       0.87855 
   3031.23620       0.32241       2.43215       4.07215       0.02812       0.86074       0.88487       0.89223       0.90578       0.91642 
   3031.08380       0.34223       2.41599       3.99286       0.02599       0.84984       0.87303       0.88497       0.89155       0.90278 
   3030.93140       0.35308       2.41097       4.02630       0.02744       0.83424       0.85633       0.86748       0.86454       0.87363 
