~Version Information
VERS  .          2.0                              :CWLS Log Ascii Standard - Version 2.0
WRAP  .          NO                               :One line per depth step
~Well Information Block
#MNEM.UNIT       Data Type                        Information
#---------       ---------                        -------------------------------
STRT  .M         4768.13900                       :START DEPTH
STOP  .M         2401.97600                       :STOP DEPTH
STEP  .M         -0.15240                         :INCREMENT
NULL  .          -999.25                          :NULL DATA VALUE
COMP  .          INPEX Browse Ltd.                :COMPANY
WELL  .          Gorgonicthys-1                   :WELL
FLD   .          GORGONICHTHYS                    :FIELD
LOC   .                                           :LOCATION
PROV  .          WA                               :PROVINCE
STAT  .          WA                               :STATE
CNTY  .                                           :COUNTY
CTRY  .          Australia                        :COUNTRY
DATE  .                                           :DATE
UWI   .          Gorgonicthys-1                   :UNIQUE WELL UWI
LIC   .                                           :LICENSE NUMBER
API   .                                           :API NUMBER
SRVC  .          SLB                              :SERVICE COMPANY
~Parameter Information Block
#MNEM.UNIT       Value                            Description
#---------       ---------                        -------------
LONG  .DEG       123.126999                       :Well Surface Location
LATI  .DEG       -13.978000                       :Well Surface Location
XWELL .M         513716.073431                    :X-coordinate of Well Head
YWELL .M         8454697.816648                   :Y-coordinate of Well Head
~Curve Information Block
#MNEM.UNIT       API Code            Curve    Description
#--------        --------------      -----    -------------------
DEPT  .M                             :0       Index
TNPH  .V/V                           :1       Thermal Neutron Porosity (Ratio Method) in Selected Lithology
RHOB  .G/C3                          :2       Bulk Density                  
PEF   .                              :3       Photoelectric Factor          
DRHO  .G/C3                          :4       Bulk Density Correction       
AT90  .OHMM                          :5       AIT Two Foot Resistivity A90  
AT60  .OHMM                          :6       AIT Two Foot Resistivity A60  
AT30  .OHMM                          :7       AIT Two Foot Resistivity A30  
AT20  .OHMM                          :8       AIT Two Foot Resistivity A20  
AT10  .OHMM                          :9       AIT Two Foot Resistivity A10  
~Ascii Data Section
# ...
   2883.10340       0.41040       2.36861       3.94371       0.01308       0.57754       0.57678       0.59325       0.58779       0.60041 
   2882.95100       0.36958       2.36917       3.89476       0.01158       0.55800       0.55719       0.57175       0.56807       0.57754 
   2882.79860       0.36564       2.38207       3.86769       0.02001       0.56069       0.55993       0.56556       0.56779       0.57567 
   2882.64620       0.39411       2.39588       3.89133       0.03163       0.56231       0.56160       0.56220       0.56727       0.57434 
   2882.49380       0.39253       2.40335       3.94179       0.04049       0.56862       0.56784       0.55978       0.56365       0.57027 
   2882.34140       0.38025       2.40597       4.00264       0.04386       0.57092       0.57059       0.56066       0.56219       0.56790 
   2882.18900       0.34283       2.40357       4.10655       0.04429       0.57359       0.57340       0.56350       0.56416       0.56893 
   2882.03660       0.35119       2.40630       4.21625       0.04345       0.57406       0.57404       0.56744       0.56871       0.57303 
   2881.88420       0.36754       2.40990       4.26792       0.03996       0.57970       0.57999       0.57609       0.57871       0.58256 
   2881.73180       0.35510       2.39867       4.22976       0.02845       0.58531       0.58597       0.58509       0.58888       0.59264 
   2881.57940       0.37920       2.38135       4.13876       0.01722       0.58267       0.58367       0.58402       0.58429       0.58860 
   2881.42700       0.39975       2.38305       4.14020       0.01210       0.57697       0.57817       0.57817       0.57527       0.57872 
   2881.27460       0.43518       2.42913       4.25773       0.02220       0.57722       0.57851       0.57958       0.57498       0.57735 
   2881.12220       0.45070       2.46258       4.45883       0.02190       0.57807       0.57918       0.57988       0.57875       0.58083 
   2880.96980       0.44086       2.46235       4.54651       0.01774       0.57942       0.58057       0.58041       0.58152       0.58381 
   2880.81740       0.36758       2.41305       4.54916       0.00488       0.57916       0.58030       0.58012       0.58199       0.58521 
   2880.66500       0.43465       2.38411       4.47673       0.00653       0.58163       0.58275       0.58136       0.58113       0.58428 
   2880.51260       0.42247       2.36523       4.41854       0.00612       0.58135       0.58247       0.58101       0.58076       0.58290 
   2880.36020       0.49801       2.35905       4.37349       0.00522       0.57952       0.58065       0.57875       0.57839       0.58073 
   2880.20780       0.40732       2.34820       4.34858       0.00434       0.57558       0.57677       0.57429       0.57331       0.57585 
   2880.05540       0.46886       2.34508       4.30235       0.00835       0.57154       0.57273       0.57012       0.56905       0.57162 
   2879.90300       0.42519       2.36072       4.19418       0.02083       0.57155       0.57283       0.56991       0.56901       0.57201 
   2879.75060       0.46583       2.38791       4.05678       0.03660       0.57106       0.57241       0.56975       0.57048       0.57354 
   2879.59820       0.43948       2.39358       4.01101       0.03939       0.56700       0.56841       0.56591       0.56496       0.56797 
   2879.44580       0.44745       2.39344       4.02941       0.03853       0.56290       0.56431       0.56209       0.55931       0.56182 
   2879.29340       0.36590       2.39493       4.09042       0.03909       0.56029       0.56180       0.56010       0.55737       0.55957 
   2879.14100       0.38831       2.41612       4.14222       0.04654       0.55628       0.55777       0.55682       0.55457       0.55717 
   2878.98860       0.41198       2.42467       4.19265       0.04250       0.55460       0.55608       0.55480       0.55344       0.55608 
   2878.83620       0.49474       2.41827       4.21249       0.03262       0.55606       0.55755       0.55673       0.55561       0.55802 
   2878.68380       0.48868       2.40070       4.17494       0.02451       0.55686       0.55835       0.55755       0.55720       0.56026 
   2878.53140       0.44565       2.37922       4.11526       0.01818       0.55710       0.55856       0.55798       0.55699       0.56038 
   2878.37900       0.36156       2.36565       4.05442       0.01294       0.55952       0.56095       0.56008       0.55881       0.56186 
   2878.22660       0.33893       2.37662       3.98585       0.02010       0.56206       0.56342       0.56221       0.56094       0.56412 
   2878.07420       0.32360       2.39462       3.95713       0.03233       0.55696       0.55824       0.55770       0.55660       0.56154 
   2877.92180       0.39649       2.40970       3.98678       0.04463       0.55372       0.55490       0.55310       0.55002       0.55623 
   2877.76940       0.42923       2.40785       4.09430       0.04200       0.54987       0.55097       0.55051       0.54907       0.55494 
   2877.61700       0.45511       2.41193       4.20725       0.03945       0.55008       0.55114       0.55230       0.55150       0.55754 
   2877.46460       0.35800       2.41743       4.28280       0.03337       0.55440       0.55540       0.55614       0.55520       0.56243 
   2877.31220       0.33528       2.41260       4.33469       0.02525       0.55958       0.56064       0.56623       0.56689       0.57696 
   2877.15980       0.29259       2.40720       4.34480       0.02282       0.56609       0.56724       0.58216       0.58969       0.60184 
   2877.00740       0.34919       2.40595       4.31239       0.03187       0.57404       0.57522       0.58876       0.59409       0.60210 
   2876.85500       0.37325       2.41312       4.24126       0.04993       0.56364       0.56464       0.57187       0.56824       0.57375 
   2876.70260       0.37196       2.41722       4.16545       0.05992       0.55379       0.55475       0.55950       0.55196       0.55821 
   2876.55020       0.36748       2.41578       4.14184       0.05825       0.54805       0.54887       0.55183       0.55131       0.55783 
   2876.39780       0.36196       2.40978       4.15044       0.04871       0.55280       0.55357       0.55454       0.55534       0.56075 
   2876.24540       0.40595       2.40305       4.16987       0.03963       0.55708       0.55774       0.55658       0.55839       0.56342 
   2876.09300       0.39374       2.38180       4.20529       0.02609       0.56163       0.56228       0.56026       0.56055       0.56531 
   2875.94060       0.42198       2.37373       4.21656       0.02282       0.56598       0.56659       0.56321       0.56436       0.56899 
   2875.78820       0.39691       2.36547       4.27260       0.02304       0.57078       0.57138       0.56734       0.57062       0.57479 
   2875.63580       0.46177       2.37492       4.31841       0.03198       0.56851       0.56908       0.56707       0.57109       0.57514 
   2875.48340       0.43972       2.38144       4.34698       0.03432       0.56332       0.56381       0.56140       0.56094       0.56555 
   2875.33100       0.49940       2.39171       4.27042       0.03791       0.55801       0.55844       0.55671       0.55273       0.55598 
   2875.17860       0.46745       2.38265       4.15412       0.02866       0.55454       0.55484       0.55388       0.55040       0.55235 
   2875.02620       0.47753       2.37352       4.04288       0.02133       0.55373       0.55380       0.55140       0.54939       0.55141 
   2874.87380       0.48019       2.37832       3.95439       0.01656       0.55373       0.55363       0.55052       0.54963       0.55127 
   2874.72140       0.46985       2.39076       3.94258       0.02247       0.55385       0.55355       0.55019       0.54978       0.55134 
   2874.56900       0.41420       2.38612       4.02039       0.02486       0.55209       0.55161       0.54819       0.54773       0.54939 
