~Version Information
VERS  .          2.0                              :CWLS Log Ascii Standard - Version 2.0
WRAP  .          NO                               :One line per depth step
~Well Information Block
#MNEM.UNIT       Data Type                        Information
#---------       ---------                        -------------------------------
STRT  .M         4768.13900                       :START DEPTH
STOP  .M         2401.97600                       :STOP DEPTH
STEP  .M         -0.15240                         :INCREMENT
NULL  .          -999.25                          :NULL DATA VALUE
COMP  .          INPEX Browse Ltd.                :COMPANY
WELL  .          Gorgonicthys-1                   :WELL
FLD   .          GORGONICHTHYS                    :FIELD
LOC   .                                           :LOCATION
PROV  .          WA                               :PROVINCE
STAT  .          WA                               :STATE
CNTY  .                                           :COUNTY
CTRY  .          Australia                        :COUNTRY
DATE  .                                           :DATE
UWI   .          Gorgonicthys-1                   :UNIQUE WELL UWI
LIC   .                                           :LICENSE NUMBER
API   .                                           :API NUMBER
SRVC  .          SLB                              :SERVICE COMPANY
~Parameter Information Block
#MNEM.UNIT       Value                            Description
#---------       ---------                        -------------
LONG  .DEG       123.126999                       :Well Surface Location
LATI  .DEG       -13.978000                       :Well Surface Location
XWELL .M         513716.073431                    :X-coordinate of Well Head
YWELL .M         8454697.816648                   :Y-coordinate of Well Head
~Curve Information Block
#MNEM.UNIT       API Code            Curve    Description
#--------        --------------      -----    -------------------
DEPT  .M                             :0       Index
TNPH  .V/V                           :1       Thermal Neutron Porosity (Ratio Method) in Selected Lithology
RHOB  .G/C3                          :2       Bulk Density                  
PEF   .                              :3       Photoelectric Factor          
DRHO  .G/C3                          :4       Bulk Density Correction       
AT90  .OHMM                          :5       AIT Two Foot Resistivity A90  
AT60  .OHMM                          :6       AIT Two Foot Resistivity A60  
AT30  .OHMM                          :7       AIT Two Foot Resistivity A30  
AT20  .OHMM                          :8       AIT Two Foot Resistivity A20  
AT10  .OHMM                          :9       AIT Two Foot Resistivity A10  
~Ascii Data Section
# ...
   4611.77660       0.02198       2.47569       2.82116       0.01182    1746.07336    1811.36426     922.36023     876.82294     880.55908 
   4611.62420       0.02195       2.48055       2.40004       0.00778    1563.71130    1650.82947     875.50751     871.58588     868.61243 
   4611.47180       0.02330       2.48527       2.29553       0.01289    1166.04773    1269.18091     834.87646    1011.17041     989.77014 
   4611.31940       0.02321       2.45585       2.41906       0.03484    1328.65918    1317.61121     904.52576    1734.09351    1611.89429 
   4611.16700       0.02099       2.36444       2.89527       0.05381    1111.64050    1289.03442     851.24652     954.33667     927.99017 
   4611.01460       0.01891       2.31497       3.76576       0.07113     247.42401     218.84927     387.91071     353.27353     350.05991 
   4610.86220       0.02253       2.33980       4.50614       0.08696     139.54518     136.67628     142.06734     141.01978     137.11850 
   4610.70980       0.04740       2.44291       4.17345       0.10457      56.03572      59.30410      54.41043      50.98568      50.45063 
   4610.55740       0.09935       2.53387       3.69564       0.11719      36.75368      38.96695      35.97835      29.24998      29.16055 
   4610.40500       0.15610       2.50823       3.40508       0.11615      28.20813      29.45359      27.64039      25.63470      24.54865 
   4610.25260       0.19071       2.43148       3.71319       0.11775      27.07732      27.92719      27.42305      27.39726      25.68014 
   4610.10020       0.21260       2.30659       4.73434       0.11251      26.33765      27.10761      27.02681      28.46918      27.40608 
   4609.94780       0.25372       2.19127       5.72689       0.10356      25.16870      25.76852      26.47647      28.74736      28.49088 
   4609.79540       0.30395       2.01548       6.71033       0.07135      24.02392      24.62729      25.67891      28.20588      28.22743 
   4609.64300       0.30243       1.95198       6.76268       0.04033      20.88754      21.44616      21.91096      24.10250      23.86059 
   4609.49060       0.25601       2.01016       6.93282       0.01620      17.50713      17.98987      18.04839      19.00799      18.66842 
   4609.33820       0.19543       2.24746       5.63745       0.03419      15.51828      15.94620      15.84027      16.46857      16.16576 
   4609.18580       0.17138       2.49821       4.84174       0.07169      15.75181      16.24959      15.99546      16.57973      16.28809 
   4609.03340       0.17010       2.55173       3.79517       0.07780      16.64073      17.25985      17.01956      17.78982      17.61727 
   4608.88100       0.16590       2.50861       3.78828       0.05903      16.24303      16.86176      16.91221      17.91043      17.88854 
   4608.72860       0.16375       2.50163       3.92185       0.04468      15.56034      16.19812      16.20740      17.07777      16.97265 
   4608.57620       0.14902       2.52428       3.72816       0.02448      15.46660      16.10179      16.28845      17.14544      16.93489 
   4608.42380       0.13867       2.58105       3.04857       0.01077      15.26725      15.91147      16.42967      17.75517      17.61025 
   4608.27140       0.13415       2.58615       2.73785       0.00108      15.44028      16.13541      16.64929      17.84784      17.65955 
   4608.11900       0.15039       2.58032       2.82396       0.00712      15.28533      16.00100      16.61368      17.94352      17.56797 
   4607.96660       0.16314       2.56811       3.46703       0.02289      14.90343      15.59502      16.30228      17.56639      17.05197 
   4607.81420       0.18342       2.56127       4.12108       0.04373      13.56248      14.17017      14.82975      16.06591      15.43897 
   4607.66180       0.20945       2.55440       4.14703       0.04626      12.27396      12.80636      13.26195      14.43760      13.73894 
   4607.50940       0.24127       2.59193       3.97633       0.04641      11.24076      11.71766      12.07496      12.92635      12.28312 
   4607.35700       0.25823       2.65817       3.90449       0.03871      10.23037      10.64988      11.00362      11.48311      10.95127 
   4607.20460       0.26310       2.70318       4.10119       0.01888       9.78841      10.19836      10.40411      10.70404      10.19070 
   4607.05220       0.25294       2.69300       4.19025       0.00252       9.75679      10.18227      10.27110      10.74953      10.21355 
   4606.89980       0.25117       2.69591       4.00723      -0.00164       9.83816      10.26415      10.44287      11.24424      10.77181 
   4606.74740       0.25463       2.71542       3.82844       0.00247      10.05327      10.49347      10.71665      11.66166      11.37594 
   4606.59500       0.25885       2.71682       3.87507       0.00664       9.65550      10.05708      10.45640      11.37140      11.23097 
   4606.44260       0.27851       2.67528       4.02936       0.01007       8.86240       9.18358       9.66590      10.45152      10.20439 
   4606.29020       0.30939       2.62097       3.64166       0.01708       8.35311       8.64596       8.98339       9.64021       9.24291 
   4606.13780       0.33950       2.59544       3.30771       0.04264       7.98655       8.25411       8.60932       9.17297       8.76053 
   4605.98540       0.33868       2.57018       3.46971       0.07107       7.64763       7.89129       8.29700       8.81855       8.45277 
   4605.83300       0.33769       2.53328       4.03949       0.09945       7.46886       7.70902       7.91694       8.36812       8.03068 
   4605.68060       0.32659       2.49118       4.37034       0.12783       7.32344       7.56098       7.52460       7.87245       7.54965 
   4605.52820       0.34588       2.43367       4.96050       0.13994       6.94267       7.16831       7.22724       7.54439       7.22794 
   4605.37580       0.34200       2.35626       5.17527       0.12467       6.89106       7.11102       7.25805       7.54005       7.23592 
   4605.22340       0.33475       2.31820       6.03870       0.09040       7.17521       7.42180       7.63938       7.93826       7.67097 
   4605.07100       0.30306       2.37308       5.75523       0.05715       7.67828       7.96877       8.28680       8.70860       8.45847 
   4604.91860       0.30116       2.52743       4.56543       0.03582       8.05899       8.38419       8.80102       9.28553       8.96068 
   4604.76620       0.28137       2.66886       4.03224       0.02257       7.90027       8.21667       8.61727       9.08405       8.67945 
   4604.61380       0.28761       2.67870       3.33669       0.00724       7.64160       7.94662       8.29211       8.74335       8.32472 
   4604.46140       0.29424       2.64003       3.31885       0.00040       7.68581       8.00122       8.32952       8.84752       8.44524 
   4604.30900       0.29028       2.62823       2.85020      -0.00106       7.99484       8.34166       8.74597       9.35307       8.95806 
   4604.15660       0.27137       2.61952       2.70008      -0.00394       8.40145       8.78822       9.15808      10.04604       9.61212 
   4604.00420       0.25740       2.63147       2.72572      -0.00506       8.71600       9.13630       9.54128      10.53823      10.04730 
   4603.85180       0.26459       2.65497       2.75138      -0.00361       8.78176       9.20125       9.78794      10.57583      10.06207 
   4603.69940       0.28438       2.67776       3.21453      -0.00204       8.83896       9.25132       9.80902      10.43016       9.92665 
   4603.54700       0.27421       2.66521       3.49047      -0.00371       8.85191       9.25586       9.78685      10.50698       9.99270 
   4603.39460       0.25262       2.63670       3.41168      -0.00617       8.95330       9.35862       9.87014      10.68500      10.14081 
   4603.24220       0.24126       2.61836       3.13549      -0.00657       8.67905       9.02048       9.54044      10.45085       9.87231 
