~Version Information
VERS  .          2.0                              :CWLS Log Ascii Standard - Version 2.0
WRAP  .          NO                               :One line per depth step
~Well Information Block
#MNEM.UNIT       Data Type                        Information
#---------       ---------                        -------------------------------
STRT  .M         4768.13900                       :START DEPTH
STOP  .M         2401.97600                       :STOP DEPTH
STEP  .M         -0.15240                         :INCREMENT
NULL  .          -999.25                          :NULL DATA VALUE
COMP  .          INPEX Browse Ltd.                :COMPANY
WELL  .          Gorgonicthys-1                   :WELL
FLD   .          GORGONICHTHYS                    :FIELD
LOC   .                                           :LOCATION
PROV  .          WA                               :PROVINCE
STAT  .          WA                               :STATE
CNTY  .                                           :COUNTY
CTRY  .          Australia                        :COUNTRY
DATE  .                                           :DATE
UWI   .          Gorgonicthys-1                   :UNIQUE WELL UWI
LIC   .                                           :LICENSE NUMBER
API   .                                           :API NUMBER
SRVC  .          SLB                              :SERVICE COMPANY
~Parameter Information Block
#MNEM.UNIT       Value                            Description
#---------       ---------                        -------------
LONG  .DEG       123.126999                       :Well Surface Location
LATI  .DEG       -13.978000                       :Well Surface Location
XWELL .M         513716.073431                    :X-coordinate of Well Head
YWELL .M         8454697.816648                   :Y-coordinate of Well Head
~Curve Information Block
#MNEM.UNIT       API Code            Curve    Description
#--------        --------------      -----    -------------------
DEPT  .M                             :0       Index
TNPH  .V/V                           :1       Thermal Neutron Porosity (Ratio Method) in Selected Lithology
RHOB  .G/C3                          :2       Bulk Density                  
PEF   .                              :3       Photoelectric Factor          
DRHO  .G/C3                          :4       Bulk Density Correction       
AT90  .OHMM                          :5       AIT Two Foot Resistivity A90  
AT60  .OHMM                          :6       AIT Two Foot Resistivity A60  
AT30  .OHMM                          :7       AIT Two Foot Resistivity A30  
AT20  .OHMM                          :8       AIT Two Foot Resistivity A20  
AT10  .OHMM                          :9       AIT Two Foot Resistivity A10  
~Ascii Data Section
# ...
   4299.05180       0.29418       2.61914       4.18409       0.12057       4.69625       4.93464       5.18960       5.41961       5.23828 
   4298.89940       0.27892       2.58621       4.55379       0.11669       4.55959       4.77279       5.02405       5.25840       5.09968 
   4298.74700       0.26518       2.54779       5.31908       0.09739       4.48925       4.68636       4.95516       5.21000       5.06721 
   4298.59460       0.26254       2.53216       5.73126       0.06966       4.50745       4.69731       4.99381       5.26714       5.12594 
   4298.44220       0.27643       2.53538       5.48208       0.03887       4.52525       4.70517       5.00631       5.31892       5.17204 
   4298.28980       0.29186       2.56414       4.88128       0.01785       4.41758       4.57815       4.89329       5.19763       5.03355 
   4298.13740       0.29213       2.59357       4.66518       0.01708       4.32117       4.46812       4.73884       4.97266       4.78356 
   4297.98500       0.28529       2.62981       4.50366       0.04175       4.26644       4.40181       4.66244       4.87109       4.65939 
   4297.83260       0.27538       2.65088       4.52121       0.08044       4.27771       4.40258       4.66500       4.87691       4.64011 
   4297.68020       0.27768       2.63582       4.58788       0.11369       4.24593       4.37035       4.60101       4.78638       4.53147 
   4297.52780       0.28259       2.59709       4.75403       0.13228       4.18356       4.29806       4.49245       4.63405       4.37632 
   4297.37540       0.29612       2.56468       5.50390       0.13274       4.10364       4.21244       4.40683       4.54587       4.29106 
   4297.22300       0.29684       2.57412       5.59078       0.12387       4.05028       4.15108       4.34489       4.50124       4.24799 
   4297.07060       0.30233       2.60799       5.11218       0.11129       4.00149       4.08506       4.24494       4.42199       4.17149 
   4296.91820       0.29815       2.66763       4.31268       0.10837       3.83365       3.90877       4.04327       4.19664       3.95906 
   4296.76580       0.30372       2.68546       4.19406       0.11083       3.59660       3.66193       3.77824       3.89096       3.67705 
   4296.61340       0.27895       2.68675       4.29793       0.12923       3.50162       3.56417       3.69066       3.77607       3.56937 
   4296.46100       0.25850       2.65799       5.01463       0.15057       3.58795       3.64628       3.78489       3.89933       3.67546 
   4296.30860       0.26882       2.61549       5.34072       0.15988       3.59247       3.64888       3.79870       3.93580       3.70380 
   4296.15620       0.28572       2.58944       5.59963       0.15329       3.43775       3.49001       3.61991       3.73081       3.52256 
   4296.00380       0.28507       2.57881       5.93389       0.13427       3.28964       3.33571       3.49985       3.59735       3.41778 
   4295.85140       0.25911       2.61154       5.76075       0.11728       3.30073       3.33766       3.53538       3.66445       3.49806 
   4295.69900       0.24459       2.64316       5.60147       0.10368       3.32128       3.35103       3.58124       3.73297       3.57599 
   4295.54660       0.25373       2.65809       4.86645       0.09429       3.30723       3.34389       3.59348       3.73861       3.58901 
   4295.39420       0.28164       2.64390       4.43881       0.08600       3.38009       3.41768       3.68590       3.83046       3.66743 
   4295.24180       0.29101       2.62037       4.36649       0.07298       3.51826       3.56022       3.85270       4.00765       3.81663 
   4295.08940       0.28773       2.62432       4.33116       0.06273       3.70421       3.74439       4.09063       4.25799       4.03969 
   4294.93700       0.25663       2.66570       4.14776       0.06288       4.03508       4.09557       4.46558       4.72063       4.46689 
   4294.78460       0.23807       2.69221       3.97063       0.07545       4.37913       4.45949       4.89159       5.20849       4.90983 
   4294.63220       0.24765       2.68891       3.95723       0.09745       4.36623       4.44682       4.79354       5.15024       4.81185 
   4294.47980       0.26854       2.61658       4.29914       0.11954       4.07955       4.15154       4.49333       4.75366       4.44094 
   4294.32740       0.27425       2.55526       4.97692       0.14081       3.92994       4.00546       4.33905       4.58168       4.33104 
   4294.17500       0.26113       2.52112       5.97444       0.15351       3.99806       4.08864       4.43984       4.69408       4.46150 
   4294.02260       0.26918       2.54270       6.36372       0.15607       4.06412       4.16238       4.57004       4.84732       4.58848 
   4293.87020       0.28539       2.60041       5.85135       0.15098       4.11107       4.23117       4.62949       4.91595       4.63969 
   4293.71780       0.29171       2.65697       5.10481       0.14629       4.17750       4.30924       4.70330       5.01831       4.73906 
   4293.56540       0.29200       2.68367       4.60065       0.15220       4.24434       4.38124       4.77568       5.10949       4.83981 
   4293.41300       0.28454       2.68060       4.37390       0.16709       4.11172       4.25914       4.59481       4.94156       4.70370 
   4293.26060       0.28932       2.66433       4.56877       0.18741       3.89601       3.99819       4.31485       4.58064       4.37847 
   4293.10820       0.29427       2.65293       5.09508       0.20162       3.72860       3.81742       4.09982       4.31703       4.14022 
   4292.95580       0.29727       2.66814       5.34228       0.21917       3.69274       3.75177       4.02609       4.23407       4.07617 
   4292.80340       0.29865       2.66936       5.17264       0.22508       3.61631       3.65520       3.95864       4.20173       4.05496 
   4292.65100       0.29974       2.65462       5.08107       0.22427       3.53793       3.56813       3.88801       4.12111       3.98622 
   4292.49860       0.30878       2.61513       5.36016       0.21950       3.48704       3.51343       3.84592       4.08150       3.96187 
   4292.34620       0.31129       2.61402       5.80625       0.23290       3.45522       3.47144       3.83445       4.08667       3.98641 
   4292.19380       0.30425       2.61171       6.35585       0.23732       3.40563       3.42068       3.79358       4.03327       3.97827 
   4292.04140       0.30960       2.63301       6.80885       0.23783       3.35421       3.37276       3.75132       4.00887       4.01188 
   4291.88900       0.31414       2.68754       6.82356       0.24314       3.38829       3.37850       3.69586       3.97742       4.03236 
   4291.73660       0.30912       2.72934       6.84689       0.24502       3.21495       3.19797       3.40996       3.66813       3.74300 
   4291.58420       0.31528       2.71116       6.68937       0.23342       2.94176       2.91741       3.05442       3.17859       3.22756 
   4291.43180       0.33799       2.64517       6.65097       0.21189       2.65895       2.62876       2.81282       2.86431       2.87323 
   4291.27940       0.35602       2.61123       5.66507       0.20456       2.57093       2.53861       2.76527       2.81917       2.80033 
   4291.12700       0.33365       2.57930       5.66546       0.18802       2.61052       2.57356       2.78867       2.90868       2.87380 
   4290.97460       0.29935       2.54484       5.98600       0.17011       2.59944       2.56280       2.82482       2.95912       2.89555 
   4290.82220       0.28096       2.52104       6.85993       0.15874       2.50338       2.47738       2.72031       2.89085       2.79738 
   4290.66980       0.29712       2.56210       6.83072       0.17733       2.38448       2.36378       2.55051       2.71928       2.62013 
   4290.51740       0.30707       2.60500       6.41116       0.20217       2.29094       2.26390       2.38957       2.50521       2.41605 
