~Version Information
VERS  .          2.0                              :CWLS Log Ascii Standard - Version 2.0
WRAP  .          NO                               :One line per depth step
~Well Information Block
#MNEM.UNIT       Data Type                        Information
#---------       ---------                        -------------------------------
STRT  .M         4768.13900                       :START DEPTH
STOP  .M         2401.97600                       :STOP DEPTH
STEP  .M         -0.15240                         :INCREMENT
NULL  .          -999.25                          :NULL DATA VALUE
COMP  .          INPEX Browse Ltd.                :COMPANY
WELL  .          Gorgonicthys-1                   :WELL
FLD   .          GORGONICHTHYS                    :FIELD
LOC   .                                           :LOCATION
PROV  .          WA                               :PROVINCE
STAT  .          WA                               :STATE
CNTY  .                                           :COUNTY
CTRY  .          Australia                        :COUNTRY
DATE  .                                           :DATE
UWI   .          Gorgonicthys-1                   :UNIQUE WELL UWI
LIC   .                                           :LICENSE NUMBER
API   .                                           :API NUMBER
SRVC  .          SLB                              :SERVICE COMPANY
~Parameter Information Block
#MNEM.UNIT       Value                            Description
#---------       ---------                        -------------
LONG  .DEG       123.126999                       :Well Surface Location
LATI  .DEG       -13.978000                       :Well Surface Location
XWELL .M         513716.073431                    :X-coordinate of Well Head
YWELL .M         8454697.816648                   :Y-coordinate of Well Head
~Curve Information Block
#MNEM.UNIT       API Code            Curve    Description
#--------        --------------      -----    -------------------
DEPT  .M                             :0       Index
TNPH  .V/V                           :1       Thermal Neutron Porosity (Ratio Method) in Selected Lithology
RHOB  .G/C3                          :2       Bulk Density                  
PEF   .                              :3       Photoelectric Factor          
DRHO  .G/C3                          :4       Bulk Density Correction       
AT90  .OHMM                          :5       AIT Two Foot Resistivity A90  
AT60  .OHMM                          :6       AIT Two Foot Resistivity A60  
AT30  .OHMM                          :7       AIT Two Foot Resistivity A30  
AT20  .OHMM                          :8       AIT Two Foot Resistivity A20  
AT10  .OHMM                          :9       AIT Two Foot Resistivity A10  
~Ascii Data Section
# ...
   2726.74100       0.57924       2.39509       3.96043       0.03139       0.57459       0.57209       0.56488       0.55922       0.55900 
   2726.58860       0.51712       2.38772       4.01304       0.02854       0.57593       0.57318       0.56622       0.56008       0.56057 
   2726.43620       0.41646       2.38558       4.07851       0.03058       0.58075       0.57776       0.57166       0.56645       0.56704 
   2726.28380       0.38822       2.37962       4.15128       0.03010       0.58783       0.58462       0.57973       0.57878       0.57886 
   2726.13140       0.39363       2.36534       4.23026       0.02499       0.59116       0.58778       0.58080       0.57971       0.57959 
   2725.97900       0.36089       2.35381       4.29578       0.01786       0.58492       0.58154       0.57339       0.56722       0.56735 
   2725.82660       0.38773       2.34695       4.35296       0.01395       0.57794       0.57456       0.56748       0.56016       0.56012 
   2725.67420       0.36380       2.35048       4.34839       0.01409       0.57495       0.57148       0.56441       0.55822       0.55844 
   2725.52180       0.35712       2.34935       4.28507       0.01090       0.57190       0.56852       0.56229       0.55772       0.55787 
   2725.36940       0.32595       2.34332       4.15729       0.00614       0.56969       0.56631       0.56040       0.55666       0.55699 
   2725.21700       0.41019       2.34633       4.03211       0.00658       0.56781       0.56448       0.55904       0.55446       0.55503 
   2725.06460       0.44840       2.34677       3.98838       0.00674       0.56536       0.56212       0.55754       0.55341       0.55367 
   2724.91220       0.45230       2.34773       4.03644       0.00722       0.56257       0.55947       0.55620       0.55236       0.55228 
   2724.75980       0.40792       2.35101       4.11303       0.00849       0.55959       0.55655       0.55288       0.54930       0.54920 
   2724.60740       0.33832       2.35668       4.21754       0.01291       0.55671       0.55377       0.54925       0.54480       0.54467 
   2724.45500       0.34297       2.36875       4.32055       0.02137       0.55371       0.55090       0.54608       0.54065       0.54008 
   2724.30260       0.37743       2.36634       4.45078       0.02120       0.55175       0.54897       0.54326       0.53861       0.53701 
   2724.15020       0.40381       2.36824       4.52376       0.02075       0.55071       0.54790       0.54139       0.53686       0.53510 
   2723.99780       0.46138       2.36197       4.51427       0.01337       0.55326       0.55036       0.54284       0.53803       0.53633 
   2723.84540       0.44265       2.36920       4.39681       0.01700       0.55905       0.55610       0.54811       0.54497       0.54300 
   2723.69300       0.44398       2.37311       4.26216       0.02356       0.56407       0.56100       0.55227       0.55132       0.54957 
   2723.54060       0.37972       2.38493       4.16398       0.03543       0.56169       0.55832       0.54844       0.54451       0.54413 
   2723.38820       0.41474       2.38886       4.14974       0.04058       0.55068       0.54733       0.53734       0.53084       0.53051 
   2723.23580       0.43575       2.39609       4.18194       0.04387       0.54296       0.53955       0.52982       0.52146       0.52047 
   2723.08340       0.47455       2.39928       4.25457       0.04407       0.53660       0.53297       0.52447       0.51954       0.51792 
   2722.93100       0.50950       2.40313       4.31862       0.04185       0.53899       0.53510       0.52727       0.52202       0.52082 
   2722.77860       0.49228       2.38444       4.37304       0.02689       0.54281       0.53862       0.53133       0.52640       0.52643 
   2722.62620       0.45870       2.36095       4.37010       0.01202       0.54880       0.54425       0.53725       0.53255       0.53321 
   2722.47380       0.47110       2.34433       4.29627       0.00295       0.55233       0.54756       0.54219       0.53675       0.53780 
   2722.32140       0.51096       2.35001       4.20103       0.00442       0.55804       0.55285       0.54689       0.53975       0.54115 
   2722.16900       0.43378       2.36360       4.12409       0.00712       0.55926       0.55382       0.55029       0.54385       0.54589 
   2722.01660       0.41193       2.37481       4.08288       0.00816       0.56555       0.55999       0.55771       0.55246       0.55477 
   2721.86420       0.34792       2.38262       4.08676       0.00890       0.57606       0.57017       0.56924       0.56427       0.56660 
   2721.71180       0.31868       2.39731       4.14440       0.01379       0.58407       0.57804       0.58050       0.57700       0.57921 
   2721.55940       0.28779       2.40805       4.28243       0.02015       0.59788       0.59135       0.59372       0.59062       0.59219 
   2721.40700       0.32332       2.41034       4.40999       0.02384       0.60642       0.59982       0.60001       0.59588       0.59726 
   2721.25460       0.36301       2.40426       4.46282       0.02590       0.61030       0.60381       0.60140       0.59615       0.59610 
   2721.10220       0.34810       2.40210       4.40656       0.03111       0.61293       0.60674       0.60301       0.59834       0.59685 
   2720.94980       0.34769       2.40799       4.31236       0.04043       0.62401       0.61791       0.61120       0.60697       0.60392 
   2720.79740       0.34893       2.41659       4.21980       0.05019       0.63964       0.63334       0.62461       0.62285       0.61781 
   2720.64500       0.37675       2.42186       4.14885       0.05307       0.65659       0.65059       0.63705       0.63519       0.63070 
   2720.49260       0.59590       2.40907       4.11634       0.03998       0.65878       0.65349       0.64076       0.63471       0.63255 
   2720.34020       0.71881       2.38923       4.14033       0.02237       0.64744       0.64292       0.62951       0.62344       0.62247 
   2720.18780       0.60471       2.36649       4.22750       0.00608       0.63540       0.63168       0.61831       0.60893       0.60793 
   2720.03540       0.46022       2.36193       4.34163       0.00396       0.62322       0.62021       0.60718       0.59766       0.59654 
   2719.88300       0.44343       2.36148       4.41571       0.00379       0.61343       0.61107       0.60012       0.59339       0.59253 
   2719.73060       0.41761       2.39177       4.35715       0.01957       0.61117       0.60934       0.60153       0.59513       0.59523 
   2719.57820       0.38575       2.42032       4.25535       0.03091       0.61528       0.61397       0.60895       0.60295       0.60449 
   2719.42580       0.33430       2.46443       4.25876       0.04345       0.62805       0.62727       0.62398       0.61790       0.62159 
   2719.27340       0.37799       2.47427       4.51763       0.03329       0.64289       0.64256       0.64197       0.63538       0.64051 
   2719.12100       0.37115       2.47745       4.82442       0.02594       0.65381       0.65381       0.65741       0.64981       0.65641 
   2718.96860       0.32692       2.47490       4.89499       0.02907       0.67408       0.67445       0.68370       0.67274       0.68549 
   2718.81620       0.34203       2.47021       4.71957       0.04056       0.69327       0.69409       0.72195       0.72418       0.74282 
   2718.66380       0.35038       2.45842       4.49678       0.04584       0.69319       0.69430       0.72893       0.74905       0.76089 
   2718.51140       0.44111       2.43335       4.42272       0.03508       0.66518       0.66643       0.69175       0.69717       0.70600 
   2718.35900       0.44186       2.40842       4.44312       0.02085       0.64011       0.64147       0.65798       0.64812       0.65699 
   2718.20660       0.46415       2.40204       4.40567       0.01615       0.62779       0.62931       0.64203       0.63360       0.63961 
