~Version Information
VERS  .          2.0                              :CWLS Log Ascii Standard - Version 2.0
WRAP  .          NO                               :One line per depth step
~Well Information Block
#MNEM.UNIT       Data Type                        Information
#---------       ---------                        -------------------------------
STRT  .M         4768.13900                       :START DEPTH
STOP  .M         2401.97600                       :STOP DEPTH
STEP  .M         -0.15240                         :INCREMENT
NULL  .          -999.25                          :NULL DATA VALUE
COMP  .          INPEX Browse Ltd.                :COMPANY
WELL  .          Gorgonicthys-1                   :WELL
FLD   .          GORGONICHTHYS                    :FIELD
LOC   .                                           :LOCATION
PROV  .          WA                               :PROVINCE
STAT  .          WA                               :STATE
CNTY  .                                           :COUNTY
CTRY  .          Australia                        :COUNTRY
DATE  .                                           :DATE
UWI   .          Gorgonicthys-1                   :UNIQUE WELL UWI
LIC   .                                           :LICENSE NUMBER
API   .                                           :API NUMBER
SRVC  .          SLB                              :SERVICE COMPANY
~Parameter Information Block
#MNEM.UNIT       Value                            Description
#---------       ---------                        -------------
LONG  .DEG       123.126999                       :Well Surface Location
LATI  .DEG       -13.978000                       :Well Surface Location
XWELL .M         513716.073431                    :X-coordinate of Well Head
YWELL .M         8454697.816648                   :Y-coordinate of Well Head
~Curve Information Block
#MNEM.UNIT       API Code            Curve    Description
#--------        --------------      -----    -------------------
DEPT  .M                             :0       Index
TNPH  .V/V                           :1       Thermal Neutron Porosity (Ratio Method) in Selected Lithology
RHOB  .G/C3                          :2       Bulk Density                  
PEF   .                              :3       Photoelectric Factor          
DRHO  .G/C3                          :4       Bulk Density Correction       
AT90  .OHMM                          :5       AIT Two Foot Resistivity A90  
AT60  .OHMM                          :6       AIT Two Foot Resistivity A60  
AT30  .OHMM                          :7       AIT Two Foot Resistivity A30  
AT20  .OHMM                          :8       AIT Two Foot Resistivity A20  
AT10  .OHMM                          :9       AIT Two Foot Resistivity A10  
~Ascii Data Section
# ...
   2414.01620       0.21495       2.57741       5.92090       0.02859       1.89495       1.97108       2.01794       1.96497       2.01145 
   2413.86380       0.21317       2.56683       6.28423       0.02648       2.07235       2.16002       2.28328       2.27011       2.34153 
   2413.71140       0.22220       2.54449       6.50021       0.02471       2.26407       2.36747       2.49771       2.47781       2.59534 
   2413.55900       0.20861       2.54131       6.48084       0.03097       2.17608       2.26961       2.44423       2.43791       2.56691 
   2413.40660       0.22337       2.55264       6.30720       0.04450       2.06279       2.14459       2.31486       2.28430       2.41873 
   2413.25420       0.21213       2.56420       6.13560       0.05840       2.02570       2.10532       2.29104       2.28843       2.41831 
   2413.10180       0.19405       2.54305       6.05918       0.05865       2.06812       2.15064       2.39826       2.45321       2.58776 
   2412.94940       0.20096       2.51858       5.99746       0.05002       2.09112       2.17744       2.45303       2.49621       2.64703 
   2412.79700       0.20156       2.50540       5.94106       0.03818       2.09983       2.19043       2.48697       2.50449       2.65373 
   2412.64460       0.21625       2.50711       5.94496       0.02961       2.11927       2.21582       2.51583       2.58468       2.74204 
   2412.49220       0.19633       2.50919       6.00742       0.02375       2.14417       2.24958       2.56958       2.66324       2.82700 
   2412.33980       0.21153       2.50224       6.03306       0.02239       2.14676       2.25687       2.57338       2.71204       2.85409 
   2412.18740       0.22106       2.51041       5.95968       0.02877       2.11532       2.22876       2.55103       2.66805       2.78154 
   2412.03500       0.23239       2.53291       5.86337       0.03905       2.15885       2.28445       2.59933       2.74448       2.83511 
   2411.88260       0.22806       2.56427       5.77840       0.04815       2.45609       2.63030       3.08442       3.28627       3.33041 
   2411.73020       0.21031       2.58335       5.70602       0.05169       2.87916       3.13764       3.86601       4.24915       4.27349 
   2411.57780       0.20731       2.57501       5.63463       0.05091       3.04783       3.35922       4.27567       4.91171       4.93426 
   2411.42540       0.19081       2.57076       5.53551       0.05204       2.98223       3.29679       4.07236       4.60620       4.50021 
   2411.27300       0.20010       2.57532       5.48441       0.05736       2.63278       2.89192       3.39872       3.54228       3.60068 
   2411.12060       0.23031       2.58986       5.53105       0.06107       2.52198       2.77274       3.41890       3.52492       3.60390 
   2410.96820       0.24400       2.58858       5.68569       0.05631       3.09252       3.49969       4.47687       5.32617       4.65072 
   2410.81580       0.19829       2.57385       5.82021       0.04453       3.32617       3.82451       5.09753       6.24428       5.36132 
   2410.66340       0.16298       2.56836       5.87174       0.03673       3.10675       3.55222       4.45748       5.10502       5.06779 
   2410.51100       0.15048       2.56930       5.88148       0.03457       3.05073       3.48868       4.24909       4.72406       4.83185 
   2410.35860       0.16855       2.57870       5.88569       0.03977       3.45438       4.04282       5.45150       6.87488       5.94315 
   2410.20620       0.17258       2.58858       5.90036       0.05134       4.01694       4.88142       6.97638       9.88363       7.70980 
   2410.05380       0.17756       2.64757       6.00234       0.09093       4.21981       5.22264       7.67843      10.95541       8.68187 
   2409.90140       0.22480       2.67928       6.45959       0.13373       3.93807       4.91949       7.24681       9.85535       8.17959 
   2409.74900       0.23182       2.61833       7.17907       0.13421       3.48255       4.21684       5.70532       7.78855       6.98169 
   2409.59660       0.27746       2.49394       7.61187       0.09089       3.16021       3.78355       5.02226       6.39694       5.69479 
   2409.44420       0.24764       2.43721       7.19181       0.05005       2.76690       3.24482       4.05813       4.91275       4.45593 
   2409.29180       0.25748       2.48611       6.30889       0.05062       2.32752       2.65885       3.19868       3.62374       3.53890 
   2409.13940       0.28877       2.54493       5.55798       0.06130       2.04304       2.29489       2.68530       2.95558       2.93929 
   2408.98700       0.34540       2.56781       5.32193       0.06108       1.95202       2.18247       2.53415       2.73960       2.68306 
   2408.83460       0.35602       2.56614       5.35000       0.05173       1.97932       2.21892       2.60004       2.76796       2.66831 
   2408.68220       0.29680       2.55499       5.42821       0.03890       2.06835       2.32961       2.76212       2.89505       2.78629 
   2408.52980       0.35092       2.54905       5.43449       0.03365       2.12267       2.39599       2.82108       3.10690       2.97888 
   2408.37740       0.35364       2.55188       5.47098       0.03270       2.13182       2.40438       2.86404       3.31201       3.17501 
   2408.22500       0.38552       2.59115       5.79266       0.05664       2.17975       2.46482       2.90220       3.34539       3.24726 
   2408.07260       0.30925       2.52637       6.67813       0.04812       2.32208       2.64394       3.01359       3.33859       3.22836 
   2407.92020       0.30337       2.42644       7.42555       0.03197       2.25415       2.55078       2.85323       3.14812       3.04123 
   2407.76780       0.38333       2.35153       7.62311       0.00695       2.23033       2.51568       2.67035       2.74155       2.70228 
   2407.61540       0.40018       2.40204       7.12960       0.01682       2.05266       2.28770       2.42910       2.59597       2.53394 
   2407.46300       0.39710       2.49365       6.59881       0.03864       2.16058       2.41841       2.57011       2.73888       2.60003 
   2407.31060       0.33338       2.52581       6.27066       0.04180       2.25330       2.53050       2.68415       2.99319       2.80755 
   2407.15820       0.32193       2.54656       6.13925       0.04905       2.39376       2.70328       2.88197       3.14528       2.97621 
   2407.00580       0.30944       2.57328       6.28905       0.05258       2.41930       2.73023       2.90733       3.16791       3.03547 
   2406.85340       0.29066       2.58962       6.89808       0.07081       2.39757       2.69622       2.89213       3.12015       2.99308 
   2406.70100       0.34275       2.55223       7.70489       0.07016       2.22629       2.47702       2.67371       2.85471       2.82279 
   2406.54860       0.33407       2.48207       8.14527       0.06362       2.07312       2.28438       2.49759       2.71145       2.68305 
   2406.39620       0.39215       2.46031       7.78212       0.05482       1.91336       2.08795       2.29779       2.51756       2.48706 
   2406.24380       0.39252       2.47762       7.04245       0.04863       1.79471       1.94384       2.15610       2.24659       2.27745 
   2406.09140       0.39060       2.51704       6.44971       0.04870       1.71511       1.84809       2.04671       2.09979       2.15198 
   2405.93900       0.36951       2.52534       6.24598       0.04729       1.69686       1.82302       2.03755       2.06084       2.10388 
   2405.78660       0.33308       2.53995       6.18215       0.05236       1.65197       1.76873       1.96724       2.05295       2.08213 
   2405.63420       0.32619       2.59776       6.22566       0.07427       1.61199       1.72001       1.91813       2.00869       2.05798 
   2405.48180       0.29321       2.60613       6.72088       0.09608       1.57688       1.67597       1.85793       1.96764       2.03882 
