~Version Information
VERS  .          2.0                              :CWLS Log Ascii Standard - Version 2.0
WRAP  .          NO                               :One line per depth step
~Well Information Block
#MNEM.UNIT       Data Type                        Information
#---------       ---------                        -------------------------------
STRT  .M         4768.13900                       :START DEPTH
STOP  .M         2401.97600                       :STOP DEPTH
STEP  .M         -0.15240                         :INCREMENT
NULL  .          -999.25                          :NULL DATA VALUE
COMP  .          INPEX Browse Ltd.                :COMPANY
WELL  .          Gorgonicthys-1                   :WELL
FLD   .          GORGONICHTHYS                    :FIELD
LOC   .                                           :LOCATION
PROV  .          WA                               :PROVINCE
STAT  .          WA                               :STATE
CNTY  .                                           :COUNTY
CTRY  .          Australia                        :COUNTRY
DATE  .                                           :DATE
UWI   .          Gorgonicthys-1                   :UNIQUE WELL UWI
LIC   .                                           :LICENSE NUMBER
API   .                                           :API NUMBER
SRVC  .          SLB                              :SERVICE COMPANY
~Parameter Information Block
#MNEM.UNIT       Value                            Description
#---------       ---------                        -------------
LONG  .DEG       123.126999                       :Well Surface Location
LATI  .DEG       -13.978000                       :Well Surface Location
XWELL .M         513716.073431                    :X-coordinate of Well Head
YWELL .M         8454697.816648                   :Y-coordinate of Well Head
~Curve Information Block
#MNEM.UNIT       API Code            Curve    Description
#--------        --------------      -----    -------------------
DEPT  .M                             :0       Index
TNPH  .V/V                           :1       Thermal Neutron Porosity (Ratio Method) in Selected Lithology
RHOB  .G/C3                          :2       Bulk Density                  
PEF   .                              :3       Photoelectric Factor          
DRHO  .G/C3                          :4       Bulk Density Correction       
AT90  .OHMM                          :5       AIT Two Foot Resistivity A90  
AT60  .OHMM                          :6       AIT Two Foot Resistivity A60  
AT30  .OHMM                          :7       AIT Two Foot Resistivity A30  
AT20  .OHMM                          :8       AIT Two Foot Resistivity A20  
AT10  .OHMM                          :9       AIT Two Foot Resistivity A10  
~Ascii Data Section
# ...
   3195.82820       0.25143       2.44868       3.80685       0.01129       0.95759       0.98888       0.99957       1.00185       1.00871 
   3195.67580       0.27330       2.46446       3.72275       0.02189       0.95215       0.98304       0.99476       0.99658       1.00567 
   3195.52340       0.26550       2.46922       3.62983       0.02459       0.94779       0.97834       0.99127       0.99185       1.00239 
   3195.37100       0.25807       2.47002       3.58676       0.02481       0.94310       0.97330       0.98791       0.98908       1.00095 
   3195.21860       0.25017       2.47213       3.58320       0.02776       0.93898       0.96900       0.98457       0.98617       1.00077 
   3195.06620       0.28449       2.48605       3.62085       0.04049       0.93677       0.96657       0.98045       0.98030       0.99797 
   3194.91380       0.30366       2.50365       3.70305       0.05450       0.93176       0.96129       0.97487       0.97629       0.99464 
   3194.76140       0.32013       2.49125       3.81889       0.04889       0.92212       0.95106       0.96901       0.97371       0.99266 
   3194.60900       0.30840       2.48058       3.90281       0.04140       0.90684       0.93503       0.97101       0.97766       1.00107 
   3194.45660       0.31392       2.45416       3.87702       0.02630       0.93778       0.96864       1.02055       1.02941       1.05743 
   3194.30420       0.36974       2.45155       3.75425       0.02140       0.99016       1.02494       1.11688       1.15411       1.18212 
   3194.15180       0.36878       2.45363       3.61063       0.01983       1.05682       1.09723       1.19879       1.24043       1.27460 
   3193.99940       0.36798       2.45964       3.51430       0.01981       1.03245       1.07136       1.14828       1.17137       1.20991 
   3193.84700       0.33646       2.44619       3.48402       0.01344       0.97742       1.01260       1.07276       1.06736       1.09753 
   3193.69460       0.32728       2.43277       3.45771       0.00531       0.93507       0.96750       1.02534       1.03093       1.05195 
   3193.54220       0.34348       2.44076       3.46227       0.00819       0.95077       0.98466       1.02538       1.04052       1.05715 
   3193.38980       0.30469       2.45147       3.50356       0.01190       0.96470       0.99998       1.03277       1.05357       1.06976 
   3193.23740       0.30409       2.45756       3.57423       0.01554       0.98607       1.02327       1.04520       1.06622       1.08215 
   3193.08500       0.30308       2.46807       3.61037       0.02365       1.00473       1.04395       1.06429       1.08494       1.10040 
   3192.93260       0.28561       2.47000       3.57286       0.02572       1.02391       1.06514       1.08403       1.10570       1.11974 
   3192.78020       0.30280       2.46626       3.48053       0.02255       1.03758       1.08037       1.10043       1.12137       1.13263 
   3192.62780       0.31579       2.45296       3.40864       0.01217       1.03890       1.08239       1.11034       1.12845       1.13817 
   3192.47540       0.32762       2.45259       3.40544       0.00980       1.02760       1.06981       1.10491       1.13247       1.14021 
   3192.32300       0.29269       2.45222       3.47843       0.01041       1.03466       1.07805       1.09968       1.12638       1.13279 
   3192.17060       0.27776       2.44329       3.54529       0.00917       1.02906       1.07174       1.09427       1.10899       1.11430 
   3192.01820       0.30161       2.42790       3.57423       0.00540       1.02194       1.06403       1.08343       1.09300       1.09607 
   3191.86580       0.30343       2.42511       3.59090       0.00505       1.02514       1.06708       1.08170       1.08816       1.08783 
   3191.71340       0.28226       2.43552       3.65465       0.01118       1.04393       1.08690       1.09501       1.09926       1.09455 
   3191.56100       0.27525       2.45661       3.74756       0.02596       1.09083       1.13674       1.13303       1.13548       1.12510 
   3191.40860       0.27234       2.45695       3.80190       0.02691       1.15749       1.20827       1.19710       1.20400       1.18784 
   3191.25620       0.29730       2.44546       3.78171       0.02062       1.22978       1.28646       1.27682       1.29841       1.27745 
   3191.10380       0.35705       2.42215       3.73014       0.00482       1.30851       1.37232       1.36115       1.39399       1.37172 
   3190.95140       0.30480       2.42498       3.65462       0.00390       1.36564       1.43490       1.41926       1.44212       1.42676 
   3190.79900       0.30323       2.43138       3.60083       0.00593       1.34375       1.41063       1.41171       1.41705       1.41050 
   3190.64660       0.28012       2.42535       3.58324       0.00575       1.27667       1.33660       1.33916       1.34251       1.33949 
   3190.49420       0.29365       2.42494       3.58847       0.00808       1.21039       1.26389       1.27352       1.26260       1.25921 
   3190.34180       0.29093       2.42573       3.63324       0.00806       1.14835       1.19647       1.20789       1.20306       1.19857 
   3190.18940       0.26341       2.43770       3.65633       0.01026       1.11438       1.15964       1.17239       1.17023       1.16611 
   3190.03700       0.27754       2.42988       3.66621       0.00630       1.08987       1.13325       1.15056       1.15232       1.14992 
   3189.88460       0.25116       2.42342       3.58755       0.00344       1.07299       1.11511       1.13334       1.13741       1.13693 
   3189.73220       0.26241       2.42931       3.46008       0.00289       1.06433       1.10596       1.12474       1.12963       1.13059 
   3189.57980       0.26064       2.44592       3.36879       0.00605       1.05753       1.09879       1.11981       1.12601       1.12806 
   3189.42740       0.31043       2.44477       3.37258       0.00654       1.04768       1.08834       1.11322       1.11834       1.12054 
   3189.27500       0.34164       2.44050       3.37672       0.00745       1.03471       1.07434       1.09760       1.10277       1.10620 
   3189.12260       0.36410       2.44646       3.38092       0.01599       1.02455       1.06343       1.08403       1.08935       1.09275 
   3188.97020       0.34902       2.45791       3.39191       0.01953       1.01095       1.04869       1.06799       1.07366       1.07615 
   3188.81780       0.34572       2.45763       3.53435       0.02084       0.98978       1.02582       1.04201       1.04703       1.05076 
   3188.66540       0.36167       2.44237       3.68392       0.01651       0.97215       1.00675       1.02078       1.02501       1.02871 
   3188.51300       0.34503       2.44341       3.78297       0.02471       0.96266       0.99647       1.00969       1.01324       1.01617 
   3188.36060       0.34077       2.44348       3.73036       0.02570       0.95386       0.98690       0.99765       1.00171       1.00530 
   3188.20820       0.37777       2.44499       3.62617       0.02176       0.94584       0.97817       0.98799       0.98646       0.99062 
   3188.05580       0.40787       2.44038       3.50644       0.01189       0.94086       0.97271       0.98370       0.98059       0.98267 
   3187.90340       0.40996       2.45532       3.44267       0.01627       0.94053       0.97228       0.98413       0.98559       0.98659 
   3187.75100       0.35070       2.46110       3.44884       0.01839       0.93879       0.97038       0.98300       0.98719       0.98996 
   3187.59860       0.37495       2.45998       3.50497       0.01787       0.93662       0.96807       0.98148       0.98705       0.99071 
   3187.44620       0.38489       2.45004       3.60759       0.01299       0.93746       0.96903       0.98265       0.99037       0.99362 
   3187.29380       0.35993       2.45976       3.67318       0.02105       0.93175       0.96291       0.97864       0.98466       0.98899 
