~Version Information
VERS  .          2.0                              :CWLS Log Ascii Standard - Version 2.0
WRAP  .          NO                               :One line per depth step
~Well Information Block
#MNEM.UNIT       Data Type                        Information
#---------       ---------                        -------------------------------
STRT  .M         4768.13900                       :START DEPTH
STOP  .M         2401.97600                       :STOP DEPTH
STEP  .M         -0.15240                         :INCREMENT
NULL  .          -999.25                          :NULL DATA VALUE
COMP  .          INPEX Browse Ltd.                :COMPANY
WELL  .          Gorgonicthys-1                   :WELL
FLD   .          GORGONICHTHYS                    :FIELD
LOC   .                                           :LOCATION
PROV  .          WA                               :PROVINCE
STAT  .          WA                               :STATE
CNTY  .                                           :COUNTY
CTRY  .          Australia                        :COUNTRY
DATE  .                                           :DATE
UWI   .          Gorgonicthys-1                   :UNIQUE WELL UWI
LIC   .                                           :LICENSE NUMBER
API   .                                           :API NUMBER
SRVC  .          SLB                              :SERVICE COMPANY
~Parameter Information Block
#MNEM.UNIT       Value                            Description
#---------       ---------                        -------------
LONG  .DEG       123.126999                       :Well Surface Location
LATI  .DEG       -13.978000                       :Well Surface Location
XWELL .M         513716.073431                    :X-coordinate of Well Head
YWELL .M         8454697.816648                   :Y-coordinate of Well Head
~Curve Information Block
#MNEM.UNIT       API Code            Curve    Description
#--------        --------------      -----    -------------------
DEPT  .M                             :0       Index
TNPH  .V/V                           :1       Thermal Neutron Porosity (Ratio Method) in Selected Lithology
RHOB  .G/C3                          :2       Bulk Density                  
PEF   .                              :3       Photoelectric Factor          
DRHO  .G/C3                          :4       Bulk Density Correction       
AT90  .OHMM                          :5       AIT Two Foot Resistivity A90  
AT60  .OHMM                          :6       AIT Two Foot Resistivity A60  
AT30  .OHMM                          :7       AIT Two Foot Resistivity A30  
AT20  .OHMM                          :8       AIT Two Foot Resistivity A20  
AT10  .OHMM                          :9       AIT Two Foot Resistivity A10  
~Ascii Data Section
# ...
   3829.96460       0.29531       2.56624       4.12208       0.00944       3.53209       3.75870       4.50175       4.81648       4.95420 
   3829.81220       0.33270       2.55100       3.77632       0.01235       3.11124       3.28499       3.67973       3.80138       3.87625 
   3829.65980       0.35658       2.56394       3.74596       0.01652       2.73550       2.86841       3.05769       3.07661       3.14619 
   3829.50740       0.35847       2.63375       4.05277       0.02584       2.56614       2.68474       2.80998       2.83152       2.88491 
   3829.35500       0.34151       2.74313       4.65764       0.04049       2.67724       2.80648       2.91228       2.93453       2.94089 
   3829.20260       0.39592       2.84721       5.38199       0.05981       3.38188       3.60095       3.63336       3.61981       3.55042 
   3829.05020       0.36406       2.81306       5.94353       0.06848       4.59773       5.02996       5.16402       5.96893       5.57530 
   3828.89780       0.39060       2.66624       6.00571       0.05855       5.70978       6.43012       6.37095       7.81848       7.94071 
   3828.74540       0.34097       2.53031       5.51892       0.05203       5.09980       5.66301       5.33928       5.57918       5.97617 
   3828.59300       0.34903       2.50180       4.78569       0.04882       4.19622       4.57963       4.31049       4.23883       4.27154 
   3828.44060       0.32919       2.53660       4.29298       0.05074       3.76985       4.08050       3.78570       3.59232       3.51271 
   3828.28820       0.32595       2.57018       4.06722       0.04442       3.12904       3.34323       3.18316       3.19625       3.15778 
   3828.13580       0.33052       2.57791       3.99909       0.03707       2.99974       3.19758       3.07654       3.06998       3.07463 
   3827.98340       0.39121       2.58193       3.93366       0.03606       3.09759       3.30939       3.22886       3.23835       3.22043 
   3827.83100       0.38491       2.57942       3.93264       0.03916       3.31291       3.56060       3.50600       3.51919       3.48269 
   3827.67860       0.37404       2.58796       3.95719       0.04607       3.75299       4.05879       4.09586       3.75481       3.76530 
   3827.52620       0.30712       2.60577       4.11045       0.06102       4.14646       4.52287       4.59971       4.16228       4.25774 
   3827.37380       0.31781       2.62407       4.48721       0.08044       4.60279       5.04646       5.36313       5.36809       5.45845 
   3827.22140       0.32820       2.62141       4.98269       0.09252       5.02938       5.53312       6.45765       6.91038       6.88480 
   3827.06900       0.36563       2.59927       5.42222       0.09459       4.83983       5.28750       5.85198       7.24128       7.35695 
   3826.91660       0.36712       2.58344       5.70059       0.09595       5.13404       5.61000       6.31788       7.23221       7.52155 
   3826.76420       0.33598       2.56618       5.89490       0.09542       5.33648       5.82276       6.63558       7.20943       7.50894 
   3826.61180       0.30673       2.55801       5.97654       0.08607       5.38075       5.84576       6.81982       6.90165       7.25943 
   3826.45940       0.31150       2.56496       5.78798       0.07281       5.37465       5.81894       6.87400       6.84253       7.19009 
   3826.30700       0.31705       2.57717       5.35704       0.05186       5.65464       6.13348       7.25388       7.51229       7.75462 
   3826.15460       0.29275       2.59023       4.85618       0.04215       5.93513       6.39164       7.84412       8.43519       8.69127 
   3826.00220       0.31248       2.58509       4.63191       0.03906       5.86380       6.33499       7.42391       7.73035       8.03450 
   3825.84980       0.30586       2.60361       4.77714       0.05445       5.87447       6.32169       6.91937       6.94209       7.12140 
   3825.69740       0.31574       2.63301       5.12520       0.07715       5.74061       6.17876       6.87437       7.19466       7.35034 
   3825.54500       0.34628       2.63003       5.45722       0.08764       6.08358       6.61648       7.49717       7.95088       8.09178 
   3825.39260       0.35272       2.59236       5.59641       0.08664       6.21118       6.80594       7.83163       8.86742       9.01733 
   3825.24020       0.35859       2.54841       5.51796       0.07345       7.01434       7.80203       8.95285       9.86758       9.83108 
   3825.08780       0.33912       2.53662       5.29898       0.06394       6.67604       7.42689       8.36804       9.11438       9.00583 
   3824.93540       0.32093       2.55224       5.09784       0.06107       6.70562       7.49772       8.07083       7.92756       7.83057 
   3824.78300       0.34165       2.57605       5.03551       0.06418       6.32870       7.06267       7.70148       8.21633       7.75538 
   3824.63060       0.30370       2.59753       5.07089       0.06246       6.79904       7.67453       8.03823       8.98421       8.26285 
   3824.47820       0.29292       2.59974       5.12032       0.04856       6.70309       7.59714       8.37988       9.43082       8.90370 
   3824.32580       0.27632       2.59648       4.96798       0.03562       8.14104       9.39368       9.49575      10.54858       9.65612 
   3824.17340       0.32274       2.57678       4.73483       0.02444       7.18635       8.36461       8.06757       9.17351       7.96029 
   3824.02100       0.29690       2.55870       4.49572       0.02181       5.15655       5.67898       5.39513       5.67748       5.16434 
   3823.86860       0.28277       2.52953       4.43862       0.01358       3.88645       4.18224       3.95622       4.00434       3.87118 
   3823.71620       0.29672       2.52004       4.39717       0.01361       3.42414       3.66136       3.48992       3.49469       3.41885 
   3823.56380       0.29226       2.53685       4.28870       0.02357       3.19227       3.40029       3.27525       3.29909       3.19860 
   3823.41140       0.31084       2.55695       4.16082       0.03398       3.14242       3.34765       3.18461       3.12065       3.04912 
   3823.25900       0.32349       2.57297       4.05689       0.03968       3.05711       3.24020       3.20730       3.03395       2.97832 
   3823.10660       0.36663       2.57768       4.04168       0.03954       2.97280       3.14871       3.16252       2.99806       2.95312 
   3822.95420       0.36012       2.59087       4.09680       0.04011       2.77738       2.92465       3.04624       2.93714       2.92193 
   3822.80180       0.34711       2.59687       4.18391       0.03857       2.83417       2.98120       3.06269       3.02058       2.99576 
   3822.64940       0.31450       2.59735       4.18398       0.03939       2.87833       3.02380       3.16036       3.27381       3.23283 
   3822.49700       0.29177       2.58408       4.07984       0.03883       2.95108       3.09891       3.24010       3.33751       3.33744 
   3822.34460       0.26657       2.56805       3.97070       0.03607       2.95221       3.09302       3.20010       3.16130       3.15822 
   3822.19220       0.30012       2.55908       3.91300       0.03356       2.92892       3.06198       3.13997       3.08776       3.06547 
   3822.03980       0.33208       2.55382       3.93311       0.02957       2.95360       3.08624       3.16687       3.19456       3.16747 
   3821.88740       0.37096       2.55208       3.97346       0.02805       2.96338       3.09155       3.15570       3.26304       3.23078 
   3821.73500       0.33381       2.54376       4.03659       0.02237       3.01173       3.13643       3.13990       3.17124       3.14504 
   3821.58260       0.32866       2.54221       4.09467       0.02093       3.02221       3.14742       3.12966       3.11365       3.08712 
   3821.43020       0.29498       2.54392       4.14732       0.01927       2.99802       3.12203       3.12597       3.13344       3.10590 
