~Version Information
VERS  .          2.0                              :CWLS Log Ascii Standard - Version 2.0
WRAP  .          NO                               :One line per depth step
~Well Information Block
#MNEM.UNIT       Data Type                        Information
#---------       ---------                        -------------------------------
STRT  .M         4768.13900                       :START DEPTH
STOP  .M         2401.97600                       :STOP DEPTH
STEP  .M         -0.15240                         :INCREMENT
NULL  .          -999.25                          :NULL DATA VALUE
COMP  .          INPEX Browse Ltd.                :COMPANY
WELL  .          Gorgonicthys-1                   :WELL
FLD   .          GORGONICHTHYS                    :FIELD
LOC   .                                           :LOCATION
PROV  .          WA                               :PROVINCE
STAT  .          WA                               :STATE
CNTY  .                                           :COUNTY
CTRY  .          Australia                        :COUNTRY
DATE  .                                           :DATE
UWI   .          Gorgonicthys-1                   :UNIQUE WELL UWI
LIC   .                                           :LICENSE NUMBER
API   .                                           :API NUMBER
SRVC  .          SLB                              :SERVICE COMPANY
~Parameter Information Block
#MNEM.UNIT       Value                            Description
#---------       ---------                        -------------
LONG  .DEG       123.126999                       :Well Surface Location
LATI  .DEG       -13.978000                       :Well Surface Location
XWELL .M         513716.073431                    :X-coordinate of Well Head
YWELL .M         8454697.816648                   :Y-coordinate of Well Head
~Curve Information Block
#MNEM.UNIT       API Code            Curve    Description
#--------        --------------      -----    -------------------
DEPT  .M                             :0       Index
TNPH  .V/V                           :1       Thermal Neutron Porosity (Ratio Method) in Selected Lithology
RHOB  .G/C3                          :2       Bulk Density                  
PEF   .                              :3       Photoelectric Factor          
DRHO  .G/C3                          :4       Bulk Density Correction       
AT90  .OHMM                          :5       AIT Two Foot Resistivity A90  
AT60  .OHMM                          :6       AIT Two Foot Resistivity A60  
AT30  .OHMM                          :7       AIT Two Foot Resistivity A30  
AT20  .OHMM                          :8       AIT Two Foot Resistivity A20  
AT10  .OHMM                          :9       AIT Two Foot Resistivity A10  
~Ascii Data Section
# ...
   3673.60220       0.43776       2.57595       3.94231       0.04594       1.56211       1.61965       1.65560       1.66238       1.64933 
   3673.44980       0.47280       2.56404       3.99667       0.04549       1.58999       1.64524       1.67816       1.69265       1.67171 
   3673.29740       0.39795       2.53628       4.04738       0.03490       1.61672       1.66924       1.70946       1.72520       1.69318 
   3673.14500       0.36033       2.50180       4.07065       0.01938       1.66306       1.71414       1.75848       1.76511       1.71799 
   3672.99260       0.34467       2.49261       4.04197       0.01492       1.74178       1.79275       1.83252       1.83647       1.77509 
   3672.84020       0.38440       2.52003       3.97401       0.02953       1.96889       2.02806       2.06201       2.05738       1.93611 
   3672.68780       0.40014       2.55374       3.94417       0.04528       2.40452       2.48117       2.53482       2.52784       2.26586 
   3672.53540       0.39927       2.57736       3.94955       0.05159       2.98125       3.09233       3.11621       3.08745       2.65115 
   3672.38300       0.37814       2.58329       3.97495       0.04527       3.24726       3.36441       3.31298       3.29027       2.82827 
   3672.23060       0.45192       2.57635       3.99092       0.03836       3.24094       3.34106       3.24144       3.20855       2.79830 
   3672.07820       0.38358       2.56737       3.99900       0.03670       3.10949       3.19243       3.01027       3.00469       2.66314 
   3671.92580       0.39607       2.55339       4.01680       0.04320       3.01939       3.09040       2.80865       2.76565       2.49512 
   3671.77340       0.34174       2.53834       3.98456       0.04206       2.85537       2.91125       2.61092       2.59396       2.34968 
   3671.62100       0.40616       2.53522       3.90911       0.03680       2.69472       2.73813       2.41112       2.39681       2.17179 
   3671.46860       0.41370       2.54431       3.83346       0.02617       2.40909       2.43807       2.15925       2.10919       1.95158 
   3671.31620       0.43215       2.55988       3.86372       0.02644       2.22576       2.24537       1.97723       1.92616       1.80825 
   3671.16380       0.37336       2.56532       3.95859       0.03076       2.26161       2.27881       1.99804       1.93644       1.80241 
   3671.01140       0.37461       2.55645       4.03621       0.03244       2.54281       2.55609       2.17865       2.06150       1.89391 
   3670.85900       0.36337       2.54749       4.01944       0.03118       2.76544       2.77013       2.31380       2.18695       2.00841 
   3670.70660       0.36178       2.54286       3.92261       0.02762       2.96707       2.95888       2.44717       2.30248       2.11179 
   3670.55420       0.36783       2.53012       3.82937       0.02001       3.21030       3.17475       2.57702       2.38935       2.19180 
   3670.40180       0.42168       2.53136       3.80204       0.02089       3.53758       3.47086       2.73652       2.51793       2.30430 
   3670.24940       0.39410       2.53694       4.00026       0.02605       4.15744       4.03337       3.15659       2.84244       2.55076 
   3670.09700       0.35572       2.57309       4.51981       0.05278       4.92246       4.70981       3.68367       3.35321       2.90349 
   3669.94460       0.34208       2.58891       5.21658       0.07561       5.42392       5.13118       4.02618       3.60689       3.12020 
   3669.79220       0.35805       2.58328       5.81671       0.09381       5.05545       4.74486       3.97571       3.53014       3.17085 
   3669.63980       0.35988       2.56082       6.18737       0.10552       4.79688       4.50554       4.10517       3.61206       3.32200 
   3669.48740       0.37634       2.52676       6.49747       0.11217       5.05640       4.75354       4.68584       4.07680       3.66901 
   3669.33500       0.37304       2.48692       6.80872       0.10981       4.83632       4.56239       4.92037       4.33058       3.96069 
   3669.18260       0.40237       2.45726       7.08494       0.09431       4.28618       4.08168       4.70091       4.19724       4.01830 
   3669.03020       0.41076       2.45493       7.21098       0.08395       3.77692       3.63343       4.42791       3.97821       3.86917 
   3668.87780       0.41831       2.46275       7.12759       0.08491       3.40639       3.30764       4.14870       3.85074       3.76988 
   3668.72540       0.42220       2.46390       6.63363       0.09204       3.25004       3.18023       4.13942       3.96638       3.86651 
   3668.57300       0.36668       2.50256       5.74782       0.10113       3.24205       3.19540       4.38117       4.33582       4.17417 
   3668.42060       0.38974       2.60530       4.92189       0.13597       3.24725       3.22568       4.60073       4.70061       4.53810 
   3668.26820       0.47794       2.64438       4.80791       0.15888       3.16548       3.17180       4.60054       4.72225       4.68904 
   3668.11580       0.72382       2.53006       5.51852       0.14240       3.11263       3.14089       4.44126       4.51047       4.60438 
   3667.96340       0.76794       2.39829       6.25078       0.11333       3.07174       3.12212       4.32943       4.43933       4.51292 
   3667.81100       0.52358       2.36778       6.17361       0.10539       3.03608       3.10789       4.19457       4.35456       4.32872 
   3667.65860       0.38092       2.43392       5.37825       0.09836       3.02302       3.11542       4.07866       4.29743       4.15686 
   3667.50620       0.32968       2.46927       4.58144       0.06293       3.23207       3.36032       4.27998       4.63754       4.25490 
   3667.35380       0.36002       2.47677       4.25294       0.02089       3.27301       3.42053       4.45623       5.04986       4.41236 
   3667.20140       0.39585       2.50630       4.34639       0.02566       3.33734       3.52933       4.38284       5.05261       4.40236 
   3667.04900       0.40499       2.51871       4.60092       0.03961       3.63849       3.88646       4.30709       4.71455       4.15703 
   3666.89660       0.33216       2.51130       4.85908       0.04413       3.72249       3.98455       3.86332       4.18558       3.65295 
   3666.74420       0.29484       2.49729       4.85719       0.02587       3.45963       3.67945       3.25737       3.42908       2.96810 
   3666.59180       0.26078       2.49981       4.66929       0.01138       3.17599       3.36573       2.77363       2.85001       2.47482 
   3666.43940       0.31740       2.51678       4.40239       0.00552       3.16284       3.34744       2.61366       2.62889       2.27130 
   3666.28700       0.31175       2.53311       4.23056       0.01337       3.38263       3.57815       2.60279       2.59382       2.21255 
   3666.13460       0.38937       2.54317       4.12746       0.02606       3.35042       3.53763       2.58765       2.54156       2.17436 
   3665.98220       0.42368       2.53732       4.08065       0.03441       3.28634       3.45515       2.53594       2.43255       2.11809 
   3665.82980       0.43260       2.52693       4.07005       0.03406       3.12829       3.26848       2.48569       2.34106       2.06634 
   3665.67740       0.37222       2.51191       4.12342       0.02724       3.02440       3.14646       2.43500       2.26324       2.00097 
   3665.52500       0.28842       2.52345       4.20319       0.03549       2.61818       2.69653       2.28372       2.08176       1.87656 
   3665.37260       0.30364       2.53431       4.30816       0.04448       2.44664       2.50305       2.26173       2.00550       1.84279 
   3665.22020       0.36620       2.52461       4.38447       0.04053       2.80510       2.86433       2.54372       2.32205       2.06201 
   3665.06780       0.43975       2.50317       4.41915       0.02508       3.06057       3.11615       2.97102       2.77366       2.39371 
