~Version Information
VERS  .          2.0                              :CWLS Log Ascii Standard - Version 2.0
WRAP  .          NO                               :One line per depth step
~Well Information Block
#MNEM.UNIT       Data Type                        Information
#---------       ---------                        -------------------------------
STRT  .M         4768.13900                       :START DEPTH
STOP  .M         2401.97600                       :STOP DEPTH
STEP  .M         -0.15240                         :INCREMENT
NULL  .          -999.25                          :NULL DATA VALUE
COMP  .          INPEX Browse Ltd.                :COMPANY
WELL  .          Gorgonicthys-1                   :WELL
FLD   .          GORGONICHTHYS                    :FIELD
LOC   .                                           :LOCATION
PROV  .          WA                               :PROVINCE
STAT  .          WA                               :STATE
CNTY  .                                           :COUNTY
CTRY  .          Australia                        :COUNTRY
DATE  .                                           :DATE
UWI   .          Gorgonicthys-1                   :UNIQUE WELL UWI
LIC   .                                           :LICENSE NUMBER
API   .                                           :API NUMBER
SRVC  .          SLB                              :SERVICE COMPANY
~Parameter Information Block
#MNEM.UNIT       Value                            Description
#---------       ---------                        -------------
LONG  .DEG       123.126999                       :Well Surface Location
LATI  .DEG       -13.978000                       :Well Surface Location
XWELL .M         513716.073431                    :X-coordinate of Well Head
YWELL .M         8454697.816648                   :Y-coordinate of Well Head
~Curve Information Block
#MNEM.UNIT       API Code            Curve    Description
#--------        --------------      -----    -------------------
DEPT  .M                             :0       Index
TNPH  .V/V                           :1       Thermal Neutron Porosity (Ratio Method) in Selected Lithology
RHOB  .G/C3                          :2       Bulk Density                  
PEF   .                              :3       Photoelectric Factor          
DRHO  .G/C3                          :4       Bulk Density Correction       
AT90  .OHMM                          :5       AIT Two Foot Resistivity A90  
AT60  .OHMM                          :6       AIT Two Foot Resistivity A60  
AT30  .OHMM                          :7       AIT Two Foot Resistivity A30  
AT20  .OHMM                          :8       AIT Two Foot Resistivity A20  
AT10  .OHMM                          :9       AIT Two Foot Resistivity A10  
~Ascii Data Section
# ...
   3352.19060       0.31875       2.46331       3.85646       0.02268       1.16225       1.21003       1.24011       1.27185       1.31924 
   3352.03820       0.28708       2.46464       3.71633       0.02954       1.08380       1.12563       1.15790       1.17255       1.22359 
   3351.88580       0.26313       2.45161       3.64935       0.02809       1.05319       1.09280       1.13687       1.13966       1.18524 
   3351.73340       0.22447       2.44927       3.65821       0.02778       1.12446       1.16988       1.22085       1.23982       1.27678 
   3351.58100       0.27917       2.44461       3.75354       0.02477       1.20731       1.25993       1.30587       1.33372       1.39239 
   3351.42860       0.27676       2.44124       3.91249       0.02566       1.17003       1.21948       1.26502       1.29277       1.36179 
   3351.27620       0.29021       2.42109       4.05298       0.01919       1.08095       1.12309       1.15080       1.16773       1.22845 
   3351.12380       0.26258       2.40073       4.07694       0.01436       1.02604       1.06390       1.10616       1.11458       1.16382 
   3350.97140       0.26125       2.38788       3.92598       0.01030       1.15968       1.20818       1.24137       1.26350       1.29699 
   3350.81900       0.25671       2.38026       3.70853       0.00721       1.38050       1.44945       1.51179       1.58461       1.63964 
   3350.66660       0.25252       2.38311       3.53397       0.00590       1.55677       1.64508       1.71240       1.77006       1.89558 
   3350.51420       0.27912       2.38527       3.47211       0.00504       1.48813       1.56809       1.63585       1.68796       1.83350 
   3350.36180       0.27436       2.38968       3.48389       0.00659       1.38261       1.45129       1.50780       1.54831       1.66768 
   3350.20940       0.26884       2.39058       3.47186       0.00888       1.29290       1.35233       1.39282       1.40803       1.50536 
   3350.05700       0.26525       2.38699       3.43488       0.01118       1.18008       1.22922       1.27183       1.30081       1.38404 
   3349.90460       0.25325       2.40085       3.39156       0.02275       1.16670       1.21490       1.25597       1.28270       1.35739 
   3349.75220       0.23491       2.41894       3.46645       0.03609       1.19471       1.24514       1.29436       1.32843       1.40571 
   3349.59980       0.24505       2.42838       3.63461       0.04325       1.22850       1.28170       1.33616       1.37934       1.46690 
   3349.44740       0.21449       2.42122       3.84590       0.04060       1.24529       1.30027       1.35823       1.39551       1.48838 
   3349.29500       0.25888       2.41138       3.94433       0.03847       1.25146       1.30700       1.37201       1.38763       1.47801 
   3349.14260       0.24511       2.40116       3.85906       0.03417       1.25770       1.31309       1.39811       1.41753       1.50745 
   3348.99020       0.27551       2.38318       3.63782       0.02555       1.33577       1.39746       1.48782       1.53226       1.62314 
   3348.83780       0.25064       2.37106       3.38054       0.01803       1.45559       1.52847       1.65975       1.75328       1.84536 
   3348.68540       0.25162       2.36746       3.21134       0.01432       1.65232       1.74586       1.88293       2.02029       2.13315 
   3348.53300       0.23316       2.37686       3.20597       0.01792       1.76607       1.87075       2.02832       2.18513       2.31561 
   3348.38060       0.24233       2.37292       3.38505       0.01306       1.73719       1.83693       1.97432       2.12106       2.24310 
   3348.22820       0.26025       2.39292       3.71246       0.02064       1.69528       1.78240       1.91483       2.00621       2.09354 
   3348.07580       0.25936       2.40868       4.08336       0.02750       1.76884       1.86031       2.01783       2.08349       2.13157 
   3347.92340       0.23649       2.41107       4.34327       0.03533       2.00066       2.10992       2.30328       2.36662       2.36644 
   3347.77100       0.24959       2.38715       4.34245       0.03268       2.39531       2.54079       2.79283       2.87152       2.81504 
   3347.61860       0.25189       2.36994       4.11619       0.02829       3.10107       3.34927       3.80269       4.14678       3.85980 
   3347.46620       0.23197       2.38216       3.81865       0.02319       4.65531       5.12955       5.56323       6.15283       5.56900 
   3347.31380       0.19921       2.41916       3.60417       0.02147       5.31325       5.88138       6.32642       6.87104       6.32750 
   3347.16140       0.18079       2.46955       3.47594       0.02687       5.70159       6.33541       6.41025       6.59026       6.05977 
   3347.00900       0.16371       2.49658       3.43526       0.03160       6.73252       7.46374       7.25515       7.94777       6.87834 
   3346.85660       0.14202       2.49546       3.48982       0.03204       8.28844       8.89606       8.74955       9.97613       8.16768 
   3346.70420       0.15812       2.47155       3.68434       0.02889       7.22095       8.15737       7.06749       8.38222       7.04249 
   3346.55180       0.17686       2.45153       3.93463       0.02607       5.57204       6.26304       5.52969       5.90836       5.24705 
   3346.39940       0.21169       2.42548       4.07044       0.02054       5.56288       6.20743       5.61424       5.97056       5.17733 
   3346.24700       0.20575       2.40730       3.95258       0.01367       5.35108       6.02903       5.88934       6.55102       5.73074 
   3346.09460       0.19647       2.40601       3.72699       0.01650       4.91666       5.53684       5.73926       5.91360       5.47745 
   3345.94220       0.17460       2.41804       3.58715       0.02621       4.66781       5.26772       5.64431       5.64800       5.26351 
   3345.78980       0.18392       2.43063       3.54832       0.03719       4.43452       4.97197       5.14729       5.09162       4.84513 
   3345.63740       0.19329       2.43311       3.48841       0.03993       3.37462       3.68214       3.79521       3.79686       3.72691 
   3345.48500       0.19295       2.43441       3.43189       0.03507       2.88927       3.11313       3.14700       3.00342       2.93182 
   3345.33260       0.18130       2.44264       3.46179       0.02735       2.42191       2.58090       2.70658       2.73344       2.65905 
   3345.18020       0.17359       2.45153       3.63317       0.02293       2.34949       2.49921       2.64151       2.70020       2.65918 
   3345.02780       0.18945       2.44909       3.82941       0.02684       2.11165       2.23226       2.45393       2.67735       2.69420 
   3344.87540       0.18678       2.42184       3.94891       0.02274       2.08973       2.21013       2.40766       2.52902       2.57577 
   3344.72300       0.19341       2.39711       3.91391       0.01807       1.86125       1.95601       2.11382       2.13221       2.19781 
   3344.57060       0.24427       2.39891       3.72567       0.02008       1.56929       1.63654       1.73442       1.68514       1.74332 
   3344.41820       0.27352       2.41170       3.48584       0.02688       1.30809       1.35447       1.45416       1.38441       1.42994 
   3344.26580       0.26683       2.42017       3.24249       0.02950       1.28404       1.32939       1.41703       1.37109       1.38347 
   3344.11340       0.23658       2.40756       3.08526       0.02063       1.42948       1.48719       1.54585       1.55870       1.52913 
   3343.96100       0.25149       2.39599       3.02784       0.01462       1.55043       1.62144       1.68116       1.72090       1.71124 
   3343.80860       0.26003       2.39136       3.15202       0.01495       1.63395       1.71570       1.76301       1.85416       1.87132 
   3343.65620       0.23689       2.38749       3.55085       0.01416       1.72478       1.81905       1.91479       2.03521       2.05637 
