~Version Information
VERS  .          2.0                              :CWLS Log Ascii Standard - Version 2.0
WRAP  .          NO                               :One line per depth step
~Well Information Block
#MNEM.UNIT       Data Type                        Information
#---------       ---------                        -------------------------------
STRT  .M         4768.13900                       :START DEPTH
STOP  .M         2401.97600                       :STOP DEPTH
STEP  .M         -0.15240                         :INCREMENT
NULL  .          -999.25                          :NULL DATA VALUE
COMP  .          INPEX Browse Ltd.                :COMPANY
WELL  .          Gorgonicthys-1                   :WELL
FLD   .          GORGONICHTHYS                    :FIELD
LOC   .                                           :LOCATION
PROV  .          WA                               :PROVINCE
STAT  .          WA                               :STATE
CNTY  .                                           :COUNTY
CTRY  .          Australia                        :COUNTRY
DATE  .                                           :DATE
UWI   .          Gorgonicthys-1                   :UNIQUE WELL UWI
LIC   .                                           :LICENSE NUMBER
API   .                                           :API NUMBER
SRVC  .          SLB                              :SERVICE COMPANY
~Parameter Information Block
#MNEM.UNIT       Value                            Description
#---------       ---------                        -------------
LONG  .DEG       123.126999                       :Well Surface Location
LATI  .DEG       -13.978000                       :Well Surface Location
XWELL .M         513716.073431                    :X-coordinate of Well Head
YWELL .M         8454697.816648                   :Y-coordinate of Well Head
~Curve Information Block
#MNEM.UNIT       API Code            Curve    Description
#--------        --------------      -----    -------------------
DEPT  .M                             :0       Index
TNPH  .V/V                           :1       Thermal Neutron Porosity (Ratio Method) in Selected Lithology
RHOB  .G/C3                          :2       Bulk Density                  
PEF   .                              :3       Photoelectric Factor          
DRHO  .G/C3                          :4       Bulk Density Correction       
AT90  .OHMM                          :5       AIT Two Foot Resistivity A90  
AT60  .OHMM                          :6       AIT Two Foot Resistivity A60  
AT30  .OHMM                          :7       AIT Two Foot Resistivity A30  
AT20  .OHMM                          :8       AIT Two Foot Resistivity A20  
AT10  .OHMM                          :9       AIT Two Foot Resistivity A10  
~Ascii Data Section
# ...
   4142.68940       0.12584       2.39790       6.19806       0.13490      10.00988       9.17468      12.60297      12.34670      10.73169 
   4142.53700       0.16508       2.38320       6.54741       0.10529      12.95513      12.61564      12.47573      11.29076       9.32192 
   4142.38460       0.23304       2.47836       5.48615       0.08330      10.16002       9.61007       9.04520       7.35541       6.19362 
   4142.23220       0.26318       2.61513       4.96740       0.06155      11.02568      10.79256       6.57683       5.64335       4.77973 
   4142.07980       0.26318       2.70133       4.68178       0.03867       9.18573       8.94432       6.59391       5.98994       4.84369 
   4141.92740       0.23120       2.70922       4.62872       0.01931      13.42639      13.11853       9.66440       9.13626       6.52265 
   4141.77500       0.20372       2.66154       4.34240       0.01139      24.80100      24.09674      17.00366      16.03654       9.74804 
   4141.62260       0.18935       2.63785       3.85760       0.01181      25.77675      25.07954      18.81979      15.16948       9.57851 
   4141.47020       0.20582       2.64241       3.78532       0.01332      14.51902      14.28157      12.03859       8.76346       6.59376 
   4141.31780       0.21814       2.66098       4.03808       0.01359      10.71665      10.61740       9.82189       6.72580       5.25658 
   4141.16540       0.20480       2.71132       4.30646       0.02205      12.37494      12.42393      10.15492       8.17391       5.79311 
   4141.01300       0.14837       2.72673       4.91985       0.02721      19.32524      19.87743      15.28511      17.26223       9.15441 
   4140.86060       0.09426       2.63986       4.56703       0.01423      31.05295      34.09872      27.07969      51.73446      19.80983 
   4140.70820       0.07243       2.52796       3.78224       0.00551      39.79531      44.96809      52.56573      98.12379      40.31780 
   4140.55580       0.07142       2.45127       2.84923       0.00150      44.78376      50.77036      62.22744     252.43518      60.03262 
   4140.40340       0.07776       2.41807       2.49569      -0.00049      53.12318      62.30018      73.66714     137.69859      68.40696 
   4140.25100       0.08768       2.40018       2.33966      -0.00267      59.97005      70.93365      72.67091     109.40427      80.13013 
   4140.09860       0.09491       2.39107       2.19176      -0.00431      59.99184      70.97054      75.06582     104.60606      93.31032 
   4139.94620       0.09746       2.38712       2.14785      -0.00337      63.78533      75.34132      79.04423     101.67478      97.97594 
   4139.79380       0.09599       2.38908       2.07692      -0.00265      68.10131      80.17892      84.31792      95.51499      93.72179 
   4139.64140       0.09412       2.38198       2.08635      -0.00403      71.53230      83.86233      86.29578      96.84386      92.82806 
   4139.48900       0.09236       2.37861       2.07929      -0.00563      74.75631      85.46182      91.33529     102.51047      95.73318 
   4139.33660       0.09189       2.37753       2.09847      -0.00614      77.09534      86.90455      93.59658     105.18582      96.93614 
   4139.18420       0.08946       2.37384       2.11621      -0.00564      78.22318      86.49191      95.59874     106.24964      96.05901 
   4139.03180       0.09235       2.37441       2.13698      -0.00447      79.01342      86.68230      95.94421     106.60268      94.90709 
   4138.87940       0.09305       2.37535       2.16615      -0.00319      79.99250      86.65814      96.55483     106.28983      94.01498 
   4138.72700       0.09337       2.37990       2.15841      -0.00369      81.46139      87.12287      97.39970     105.79655      93.60632 
   4138.57460       0.09263       2.38605       2.11372      -0.00480      83.39225      87.95738      98.21996     105.25940      93.89249 
   4138.42220       0.09248       2.39228       2.02855      -0.00790      85.94180      89.30730      98.19817     105.15491      95.29143 
   4138.26980       0.09152       2.41047       1.93169      -0.00788      90.28973      92.49371      99.33752     106.91347      98.70938 
   4138.11740       0.08920       2.42424       1.91568      -0.00687      92.18309      92.79018     103.80670     112.43385     105.17738 
   4137.96500       0.08496       2.43753       1.93569      -0.00312      97.40827      96.42287     108.45412     119.51595     112.87149 
   4137.81260       0.07950       2.43511       2.00890      -0.00091     102.85998      99.77675     113.95603     125.58276     119.64834 
   4137.66020       0.07381       2.42342       2.02033      -0.00003     107.88785     102.66347     120.50663     130.98376     125.67420 
   4137.50780       0.07816       2.41281       1.97724      -0.00060     111.19331     105.44114     124.33408     131.91835     128.03943 
   4137.35540       0.08245       2.41569       1.98640      -0.00150     122.49837     111.38403     123.96710     124.23830     123.01206 
   4137.20300       0.08591       2.44105       2.03524      -0.00083     126.01767     109.27175     114.71018     112.14032     113.64526 
   4137.05060       0.08254       2.47168       2.17157      -0.00000     127.57921     105.57411     108.20763     104.31255     107.18742 
   4136.89820       0.07719       2.48056       2.23965       0.00004     123.48132      96.45138      98.61559      96.07818     101.04127 
   4136.74580       0.07544       2.45766       2.20972      -0.00397     126.35455      92.60075      90.09393      81.60446      90.08379 
   4136.59340       0.07488       2.42485       2.13060      -0.00815     133.05707      89.85786      84.24930      75.12865      82.90009 
   4136.44100       0.07860       2.40678       2.07083      -0.01146     164.25146      97.19057      90.78803      76.82919      83.51342 
   4136.28860       0.08031       2.40654       2.11371      -0.01162     205.20087     102.57518      94.67091      79.24402      85.50452 
   4136.13620       0.08258       2.41397       2.15666      -0.01160     268.76526     109.39053      97.17841      80.17017      84.98569 
   4135.98380       0.07893       2.40978       2.21197      -0.01174     372.73077     119.58892      98.56004      77.91998      80.63914 
   4135.83140       0.07731       2.40312       2.20159      -0.01209     549.50311     134.21318      97.99680      76.13145      77.11479 
   4135.67900       0.08082       2.38569       2.18064      -0.01300     815.85199     158.64673     103.02881      78.52512      78.50665 
   4135.52660       0.09009       2.37736       2.13313      -0.01384    1174.87634     192.80492     112.63886      85.18225      84.15721 
   4135.37420       0.09460       2.37277       2.15882      -0.01416    1546.46716     239.68109     127.62646      95.15540      92.68087 
   4135.22180       0.09693       2.36935       2.22441      -0.01340    1831.16077     320.65048     147.07162     108.52374     104.81947 
   4135.06940       0.09485       2.36693       2.20755      -0.01169    1653.41833     412.75235     169.97224     125.10453     123.78768 
   4134.91700       0.09180       2.36706       2.18072      -0.01003     941.50690     393.32037     187.74628     144.26549     141.86995 
   4134.76460       0.08794       2.36751       2.16146      -0.00915     398.30652     230.92824     183.83069     162.17125     158.91936 
   4134.61220       0.08992       2.36497       2.22264      -0.00936     163.89748     107.89456     154.60764     167.31104     164.47325 
   4134.45980       0.08771       2.35759       2.30380      -0.01084      80.95874      63.63625      74.79757     156.60713     154.97388 
   4134.30740       0.09193       2.35008       2.27887      -0.01308      53.34720      42.82290      46.69735      98.82642      98.40502 
   4134.15500       0.09898       2.35560       2.29328      -0.01564      33.69995      34.52420      43.39370      43.63833      41.65016 
