~Version Information
VERS  .          2.0                              :CWLS Log Ascii Standard - Version 2.0
WRAP  .          NO                               :One line per depth step
~Well Information Block
#MNEM.UNIT       Data Type                        Information
#---------       ---------                        -------------------------------
STRT  .M         4768.13900                       :START DEPTH
STOP  .M         2401.97600                       :STOP DEPTH
STEP  .M         -0.15240                         :INCREMENT
NULL  .          -999.25                          :NULL DATA VALUE
COMP  .          INPEX Browse Ltd.                :COMPANY
WELL  .          Gorgonicthys-1                   :WELL
FLD   .          GORGONICHTHYS                    :FIELD
LOC   .                                           :LOCATION
PROV  .          WA                               :PROVINCE
STAT  .          WA                               :STATE
CNTY  .                                           :COUNTY
CTRY  .          Australia                        :COUNTRY
DATE  .                                           :DATE
UWI   .          Gorgonicthys-1                   :UNIQUE WELL UWI
LIC   .                                           :LICENSE NUMBER
API   .                                           :API NUMBER
SRVC  .          SLB                              :SERVICE COMPANY
~Parameter Information Block
#MNEM.UNIT       Value                            Description
#---------       ---------                        -------------
LONG  .DEG       123.126999                       :Well Surface Location
LATI  .DEG       -13.978000                       :Well Surface Location
XWELL .M         513716.073431                    :X-coordinate of Well Head
YWELL .M         8454697.816648                   :Y-coordinate of Well Head
~Curve Information Block
#MNEM.UNIT       API Code            Curve    Description
#--------        --------------      -----    -------------------
DEPT  .M                             :0       Index
TNPH  .V/V                           :1       Thermal Neutron Porosity (Ratio Method) in Selected Lithology
RHOB  .G/C3                          :2       Bulk Density                  
PEF   .                              :3       Photoelectric Factor          
DRHO  .G/C3                          :4       Bulk Density Correction       
AT90  .OHMM                          :5       AIT Two Foot Resistivity A90  
AT60  .OHMM                          :6       AIT Two Foot Resistivity A60  
AT30  .OHMM                          :7       AIT Two Foot Resistivity A30  
AT20  .OHMM                          :8       AIT Two Foot Resistivity A20  
AT10  .OHMM                          :9       AIT Two Foot Resistivity A10  
~Ascii Data Section
   4768.13900    -999.25000    -999.25000    -999.25000    -999.25000    -999.25000    -999.25000    -999.25000    -999.25000    -999.25000 
   4767.98660    -999.25000    -999.25000    -999.25000    -999.25000    -999.25000    -999.25000    -999.25000    -999.25000    -999.25000 
   4767.83420    -999.25000    -999.25000    -999.25000    -999.25000       4.69229       4.63710       4.60434       4.53723       4.36672 
   4767.68180    -999.25000    -999.25000    -999.25000    -999.25000       4.66995       4.59169       4.63326       4.57352       4.40194 
   4767.52940    -999.25000    -999.25000    -999.25000    -999.25000       4.74151       4.65683       4.73208       4.54659       4.45998 
   4767.37700    -999.25000    -999.25000    -999.25000    -999.25000       4.75209       4.62066       4.78761       4.53793       4.52304 
   4767.22460    -999.25000    -999.25000    -999.25000    -999.25000       4.77060       4.62279       4.89271       4.70810       4.69742 
   4767.07220    -999.25000    -999.25000    -999.25000    -999.25000       4.82621       4.64380       5.02103       5.05104       5.01223 
   4766.91980    -999.25000    -999.25000    -999.25000    -999.25000       4.88659       4.75011       5.21017       5.35078       5.30312 
   4766.76740    -999.25000    -999.25000    -999.25000    -999.25000       4.97737       4.79500       5.21927       5.55922       5.52970 
   4766.61500    -999.25000    -999.25000    -999.25000    -999.25000       5.07426       4.91792       5.24303       5.80957       5.77487 
   4766.46260    -999.25000    -999.25000    -999.25000    -999.25000       5.04668       4.93002       5.44912       6.00388       5.90669 
   4766.31020    -999.25000    -999.25000    -999.25000    -999.25000       5.28787       5.24216       5.53774       5.91818       5.74996 
   4766.15780    -999.25000    -999.25000    -999.25000    -999.25000       5.21798       5.18186       5.30736       5.56268       5.38152 
   4766.00540    -999.25000    -999.25000    -999.25000    -999.25000       5.11618       5.13249       5.07584       5.20245       5.03031 
   4765.85300    -999.25000    -999.25000    -999.25000    -999.25000       4.98377       4.99102       4.97413       5.01625       4.83300 
   4765.70060    -999.25000    -999.25000    -999.25000    -999.25000       4.81706       4.82212       4.85664       4.95825       4.75318 
   4765.54820    -999.25000    -999.25000    -999.25000    -999.25000       4.67598       4.67584       4.72683       4.90863       4.67864 
   4765.39580    -999.25000    -999.25000    -999.25000    -999.25000       4.54461       4.53945       4.65170       4.83151       4.57634 
   4765.24340    -999.25000    -999.25000    -999.25000    -999.25000       4.43031       4.42151       4.56162       4.76028       4.48746 
   4765.09100    -999.25000    -999.25000    -999.25000    -999.25000       4.34563       4.33750       4.49523       4.67019       4.39375 
   4764.93860    -999.25000    -999.25000    -999.25000    -999.25000       4.33855       4.32034       4.41769       4.56996       4.29440 
   4764.78620    -999.25000    -999.25000    -999.25000    -999.25000       4.33702       4.33489       4.39628       4.56714       4.28067 
   4764.63380    -999.25000    -999.25000    -999.25000    -999.25000       4.38541       4.37722       4.49674       4.68142       4.38061 
   4764.48140    -999.25000    -999.25000    -999.25000    -999.25000       4.48495       4.47193       4.59952       4.79695       4.49344 
   4764.32900    -999.25000    -999.25000    -999.25000    -999.25000       4.47482       4.46437       4.59588       4.80279       4.50111 
   4764.17660    -999.25000    -999.25000    -999.25000    -999.25000       4.34210       4.32149       4.47952       4.67966       4.38139 
   4764.02420    -999.25000    -999.25000    -999.25000    -999.25000       4.15247       4.15223       4.27826       4.47390       4.19021 
   4763.87180    -999.25000    -999.25000    -999.25000    -999.25000       4.04037       4.03478       4.13095       4.23326       3.98069 
   4763.71940    -999.25000    -999.25000    -999.25000    -999.25000       3.91629       3.90408       3.97609       4.02613       3.80711 
   4763.56700    -999.25000    -999.25000    -999.25000    -999.25000       3.88254       3.89308       3.94508       3.96314       3.75216 
   4763.41460    -999.25000    -999.25000    -999.25000    -999.25000       3.93542       3.96084       4.01177       4.05012       3.83024 
   4763.26220    -999.25000    -999.25000    -999.25000    -999.25000       4.01875       4.05931       4.08857       4.15944       3.94065 
   4763.10980    -999.25000    -999.25000    -999.25000    -999.25000       4.06305       4.12059       4.12011       4.20591       3.99624 
   4762.95740    -999.25000    -999.25000    -999.25000    -999.25000       4.08033       4.15419       4.13483       4.21559       4.01472 
   4762.80500    -999.25000    -999.25000    -999.25000    -999.25000       4.14110       4.22942       4.16816       4.25939       4.05094 
   4762.65260    -999.25000    -999.25000    -999.25000    -999.25000       4.26239       4.36791       4.23414       4.37943       4.12714 
   4762.50020    -999.25000    -999.25000    -999.25000    -999.25000       4.40022       4.52516       4.33061       4.52235       4.20570 
   4762.34780    -999.25000    -999.25000    -999.25000    -999.25000       4.50949       4.62356       4.37682       4.60563       4.23691 
   4762.19540    -999.25000    -999.25000    -999.25000    -999.25000       4.53664       4.65213       4.34390       4.61198       4.22113 
   4762.04300    -999.25000    -999.25000    -999.25000    -999.25000       4.54458       4.61025       4.28437       4.57990       4.18460 
   4761.89060    -999.25000    -999.25000    -999.25000    -999.25000       4.54264       4.56007       4.24692       4.55351       4.13433 
   4761.73820    -999.25000    -999.25000    -999.25000    -999.25000       4.55195       4.51684       4.23054       4.53491       4.05214 
   4761.58580    -999.25000    -999.25000    -999.25000    -999.25000       4.58196       4.49400       4.27081       4.53262       3.94984 
   4761.43340    -999.25000    -999.25000    -999.25000    -999.25000       4.67641       4.53637       4.37151       4.57576       3.87963 
   4761.28100    -999.25000    -999.25000    -999.25000    -999.25000       4.78908       4.60421       4.52429       4.64349       3.88632 
   4761.12860    -999.25000    -999.25000    -999.25000    -999.25000       4.91851       4.68561       4.64865       4.66841       3.97962 
   4760.97620    -999.25000    -999.25000    -999.25000    -999.25000       4.98281       4.71053       4.76184       4.63520       4.12539 
   4760.82380    -999.25000    -999.25000    -999.25000    -999.25000       4.96310       4.68709       4.88574       4.62724       4.30231 
   4760.67140    -999.25000    -999.25000    -999.25000    -999.25000       5.09667       4.76118       5.02399       4.75184       4.58287 
   4760.51900    -999.25000    -999.25000    -999.25000    -999.25000       5.08584       4.74045       5.25006       5.11221       5.07285 
   4760.36660    -999.25000    -999.25000    -999.25000    -999.25000       5.11734       4.88827       5.52851       5.67723       5.66844 
   4760.21420    -999.25000    -999.25000    -999.25000    -999.25000       5.04889       4.76770       5.38401       6.04467       5.99073 
   4760.06180    -999.25000    -999.25000    -999.25000    -999.25000       5.05849       4.84052       5.42521       5.98348       5.94476 
   4759.90940    -999.25000    -999.25000    -999.25000    -999.25000       5.02517       4.89810       5.45613       5.83220       5.78510 
   4759.75700    -999.25000    -999.25000    -999.25000    -999.25000       5.03214       4.99857       5.47702       5.72970       5.58224 
   4759.60460    -999.25000    -999.25000    -999.25000    -999.25000       5.07869       5.12688       5.48640       5.67340       5.40370 
